Creation Date,Status,Completion Date,Service Request Number,Type of Service Request,"If Yes, where is the debris located?",Current Activity,Most Recent Action,Street Address,ZIP Code,X Coordinate,Y Coordinate,Ward,Police District,Community Area,Latitude,Longitude,Location
2011-01-01T00:00:00,Completed,2011-01-04T00:00:00,11-00001766,Tree Debris,Parkway,Dispatch Clam,*Complete the Service Request,2524 N MOZART ST,60647,1156945.33866643,1916756.54337137,35,14,22,41.92735345762709,-87.69870933383872,"{'latitude': '41.92735345762709', 'longitude': '-87.69870933383872', 'needs_recoding': False}"
2012-01-01T00:00:00,Completed,2012-01-03T00:00:00,12-00001807,Tree Debris,Parkway,Dispatch Clam,*Complete the Service Request,10132 S EGGLESTON AVE,60628,1175293.29133151,1837607.05001364,9,22,73,41.70976771267409,-87.63365681877502,"{'latitude': '41.70976771267409', 'longitude': '-87.63365681877502', 'needs_recoding': False}"
2012-01-01T00:00:00,Completed,2012-01-03T00:00:00,12-00002563,Tree Debris,Alley,Dispatch Clam,*Complete the Service Request,362 E 89TH PL,60619,1180205.64151591,1845719.96819315,6,6,44,41.73191964410131,-87.61541942144278,"{'latitude': '41.73191964410131', 'longitude': '-87.61541942144278', 'needs_recoding': False}"
2013-01-01T00:00:00,Completed,2013-01-02T00:00:00,13-00000901,Tree Debris,Parkway,Dispatch Clam,*Complete the Service Request,9117 S URBAN AVE,60619,1178270.54451797,1844417.51018182,6,6,49,41.72838960811961,-87.62254782298375,"{'latitude': '41.72838960811961', 'longitude': '-87.62254782298375', 'needs_recoding': False}"
2011-01-02T00:00:00,Completed - Dup,2011-01-04T00:00:00,11-00003981,Tree Debris,Parkway,,,4102 N WOLCOTT AVE,60613,1162939.86399482,1927268.10909903,47,19,5,41.956073918430725,-87.67638589575405,"{'latitude': '41.956073918430725', 'longitude': '-87.67638589575405', 'needs_recoding': False}"
2011-01-02T00:00:00,Completed,2011-01-03T00:00:00,11-00004699,Tree Debris,Alley,Dispatch Clam,*Complete the Service Request,5005 W FOSTER AVE,60630,1142024.27000674,1934113.37317787,45,16,12,41.97527212775161,-87.753106915463,"{'latitude': '41.97527212775161', 'longitude': '-87.753106915463', 'needs_recoding': False}"
2011-01-02T00:00:00,Completed,2011-01-04T00:00:00,11-00004573,Tree Debris,Parkway,Dispatch Clam,*Complete the Service Request,5055 W CRYSTAL ST,60651,1142433.81368532,1907849.68338768,37,25,25,41.90319442254708,-87.75225553106478,"{'latitude': '41.90319442254708', 'longitude': '-87.75225553106478', 'needs_recoding': False}"
2012-01-02T00:00:00,Completed,2012-01-03T00:00:00,12-00003746,Tree Debris,Alley,,,5823 W SUPERIOR ST,60644,1137460.64980662,1904410.01240658,29,15,25,41.89384652397142,-87.77060612900046,"{'latitude': '41.89384652397142', 'longitude': '-87.77060612900046', 'needs_recoding': False}"
2012-01-02T00:00:00,Completed,2012-01-03T00:00:00,12-00005038,Tree Debris,Alley,Dispatch Clam,*Complete the Service Request,5832 N EAST CIRCLE AVE,60631,1129204.09493102,1938425.07941851,41,16,10,41.9873324710467,-87.80015328916164,"{'latitude': '41.9873324710467', 'longitude': '-87.80015328916164', 'needs_recoding': False}"
2013-01-02T00:00:00,Completed,2013-01-03T00:00:00,13-00006179,Tree Debris,,Dispatch Clam,*Complete the Service Request,1201 W 110TH PL,60643,1170288.35308702,1831511.0257708,34,22,75,41.6931494013809,-87.65216220033186,"{'latitude': '41.6931494013809', 'longitude': '-87.65216220033186', 'needs_recoding': False}"
2013-01-02T00:00:00,Completed,2013-01-03T00:00:00,13-00006805,Tree Debris,Alley,Dispatch Clam,*Complete the Service Request,8227 S WOODLAWN AVE,60619,1185645.51197703,1850562.24011814,8,4,45,41.74508111104989,-87.59533906387875,"{'latitude': '41.74508111104989', 'longitude': '-87.59533906387875', 'needs_recoding': False}"
2013-01-02T00:00:00,Completed,2013-01-03T00:00:00,13-00007649,Tree Debris,Parkway,,,2613 N MAGNOLIA AVE,60614,1167528.35752529,1917489.4552751,32,19,7,41.929143082607936,-87.65980002651472,"{'latitude': '41.929143082607936', 'longitude': '-87.65980002651472', 'needs_recoding': False}"
2013-01-02T00:00:00,Completed,2013-01-11T00:00:00,13-00007964,Tree Debris,Parkway,Dispatch Clam,*Complete the Service Request,7137 W SCHREIBER AVE,60631,1127699.3560128,1942541.65991076,41,16,10,41.99865433146471,-87.80559458563104,"{'latitude': '41.99865433146471', 'longitude': '-87.80559458563104', 'needs_recoding': False}"
2011-01-03T00:00:00,Completed - Dup,2011-01-05T00:00:00,11-00006716,Tree Debris,Alley,,,22 E 101ST ST,60628,1178253.9289718,1838014.0942027,9,5,49,41.71081817066191,-87.62280228282525,"{'latitude': '41.71081817066191', 'longitude': '-87.62280228282525', 'needs_recoding': False}"
2011-01-03T00:00:00,Completed,2011-01-04T00:00:00,11-00008808,Tree Debris,,Dispatch Clam,,5530 N OKETO AVE,60656,1126063.72061384,1935659.29488491,41,16,10,41.97979594182543,-87.81176590712964,"{'latitude': '41.97979594182543', 'longitude': '-87.81176590712964', 'needs_recoding': False}"
2011-01-03T00:00:00,Completed,2011-01-04T00:00:00,11-00009375,Tree Debris,,Dispatch Clam,*Complete the Service Request,3511 N OLCOTT AVE,60634,1125460.83178232,1922430.5489202,36,16,17,41.94350480927452,-87.81427784751298,"{'latitude': '41.94350480927452', 'longitude': '-87.81427784751298', 'needs_recoding': False}"
2011-01-03T00:00:00,Completed,2011-01-05T00:00:00,11-00009093,Tree Debris,Alley,Dispatch Clam,*Complete the Service Request,4812 N KILPATRICK AVE,60630,1144125.41998033,1931592.98981829,39,17,14,41.968316689232914,-87.74544377475121,"{'latitude': '41.968316689232914', 'longitude': '-87.74544377475121', 'needs_recoding': False}"
2011-01-03T00:00:00,Completed,2011-01-05T00:00:00,11-00009558,Tree Debris,Alley,Dispatch Clam,*Complete the Service Request,134 W 83RD ST,60620,1176713.99822642,1849946.9642033,21,6,44,41.743598259743116,-87.62808375998563,"{'latitude': '41.743598259743116', 'longitude': '-87.62808375998563', 'needs_recoding': False}"
2011-01-03T00:00:00,Completed,2011-01-06T00:00:00,11-00006797,Tree Debris,Parkway,Dispatch Clam,*Complete the Service Request,9215 S SANGAMON ST,60620,1171614.1400087,1843677.02990308,21,22,73,41.72650587128406,-87.64695317415047,"{'latitude': '41.72650587128406', 'longitude': '-87.64695317415047', 'needs_recoding': False}"
2011-01-03T00:00:00,Completed,2011-01-06T00:00:00,11-00008388,Tree Debris,,Dispatch Clam,Completed,7818 W BRYN MAWR AVE,60631,1123234.51806883,1936229.39457493,41,16,10,41.98140715770196,-87.8221583301063,"{'latitude': '41.98140715770196', 'longitude': '-87.8221583301063', 'needs_recoding': False}"
2011-01-03T00:00:00,Completed,2011-01-06T00:00:00,11-00009060,Tree Debris,,Dispatch Clam,*Complete the Service Request,10800 S AVENUE D,60617,1204130.1692157,1833954.41106697,10,4,52,41.69905307426229,-87.52817915113096,"{'latitude': '41.69905307426229', 'longitude': '-87.52817915113096', 'needs_recoding': False}"
2011-01-03T00:00:00,Completed,2011-01-07T00:00:00,11-00008804,Tree Debris,,Dispatch Clam,*Complete the Service Request,9554 S CALHOUN AVE,60617,1194703.82001843,1841909.41241263,7,4,51,41.721119017567126,-87.56243258249907,"{'latitude': '41.721119017567126', 'longitude': '-87.56243258249907', 'needs_recoding': False}"
2011-01-03T00:00:00,Completed,2011-01-07T00:00:00,11-00009084,Tree Debris,Parkway,Dispatch Clam,*Complete the Service Request,3436 W 84TH ST,60652,1154939.64201653,1848676.69799656,18,8,70,41.74057444386996,-87.70790091169197,"{'latitude': '41.74057444386996', 'longitude': '-87.70790091169197', 'needs_recoding': False}"
2012-01-03T00:00:00,Completed,2012-01-03T00:00:00,12-00005246,Tree Debris,Parkway,,,5319 N NEWLAND AVE,60656,1129344.42001521,1934922.80997002,41,16,10,41.97771950408744,-87.79971740974626,"{'latitude': '41.97771950408744', 'longitude': '-87.79971740974626', 'needs_recoding': False}"
2012-01-03T00:00:00,Completed,2012-01-03T00:00:00,12-00010557,Tree Debris,,Dispatch Clam,Completed,8500 S ABERDEEN ST,60620,1170468.64930811,1848443.38991851,21,6,71,41.739610424805655,-87.65101080556585,"{'latitude': '41.739610424805655', 'longitude': '-87.65101080556585', 'needs_recoding': False}"
2012-01-03T00:00:00,Completed,2012-01-04T00:00:00,12-00006081,Tree Debris,Parkway,Dispatch Clam,*Complete the Service Request,3622 W 61ST PL,60629,1153239.26258404,1863589.57012618,13,8,65,41.781531526743315,-87.71373745041171,"{'latitude': '41.781531526743315', 'longitude': '-87.71373745041171', 'needs_recoding': False}"
2012-01-03T00:00:00,Completed,2012-01-04T00:00:00,12-00006231,Tree Debris,Alley,Dispatch Clam,*Complete the Service Request,5217 W MONROE ST,60644,1141614.43568183,1899162.42868026,29,15,25,41.87937073909373,-87.75548021421714,"{'latitude': '41.87937073909373', 'longitude': '-87.75548021421714', 'needs_recoding': False}"
2012-01-03T00:00:00,Completed,2012-01-04T00:00:00,12-00006483,Tree Debris,Parkway,Dispatch Clam,*Complete the Service Request,10516 S CHRISTIANA AVE,60655,1155859.95739789,1834800.42740385,19,22,74,41.702477106515175,-87.70490006657113,"{'latitude': '41.702477106515175', 'longitude': '-87.70490006657113', 'needs_recoding': False}"
2012-01-03T00:00:00,Completed,2012-01-04T00:00:00,12-00007615,Tree Debris,Alley,Dispatch Clam,*Complete the Service Request,5437 W MONROE ST,60644,1140257.52531244,1899130.50270911,29,15,25,41.879308092267514,-87.76046342424125,"{'latitude': '41.879308092267514', 'longitude': '-87.76046342424125', 'needs_recoding': False}"
2012-01-03T00:00:00,Completed,2012-01-04T00:00:00,12-00009178,Tree Debris,Parkway,Dispatch Clam,*Complete the Service Request,4811 W GUNNISON ST,60630,1143414.5055172,1931812.10422285,45,16,12,41.968931312774544,-87.74805229421425,"{'latitude': '41.968931312774544', 'longitude': '-87.74805229421425', 'needs_recoding': False}"
2012-01-03T00:00:00,Completed,2012-01-04T00:00:00,12-00009187,Tree Debris,Parkway,,,9805 S CALHOUN AVE,60617,1194737.50392921,1840437.95689743,7,4,51,41.71708037749574,-87.56235747248427,"{'latitude': '41.71708037749574', 'longitude': '-87.56235747248427', 'needs_recoding': False}"
2012-01-03T00:00:00,Completed,2012-01-04T00:00:00,12-00009282,Tree Debris,Parkway,Dispatch Clam,*Complete the Service Request,2851 W GREENLEAF AVE,60645,1156106.31482034,1946627.04022415,50,24,2,42.009336780194516,-87.70098229051078,"{'latitude': '42.009336780194516', 'longitude': '-87.70098229051078', 'needs_recoding': False}"
2012-01-03T00:00:00,Completed,2012-01-04T00:00:00,12-00009395,Tree Debris,Parkway,Dispatch Clam,*Complete the Service Request,1348 N MASON AVE,60651,1136446.17887112,1908361.77297179,29,25,25,41.90470884920842,-87.77423742201813,"{'latitude': '41.90470884920842', 'longitude': '-87.77423742201813', 'needs_recoding': False}"
2012-01-03T00:00:00,Completed,2012-01-04T00:00:00,12-00009449,Tree Debris,Parkway,Dispatch Clam,*Complete the Service Request,3448 N NEWCASTLE AVE,60634,1130139.25329612,1922159.00640822,36,16,17,41.94268063837598,-87.79708810685591,"{'latitude': '41.94268063837598', 'longitude': '-87.79708810685591', 'needs_recoding': False}"
2012-01-03T00:00:00,Completed,2012-01-04T00:00:00,12-00009526,Tree Debris,Parkway,Dispatch Clam,*Complete the Service Request,11520 S MORGAN ST,60643,1171724.3693809,1828359.46000395,34,5,53,41.68446971693042,-87.64699658372662,"{'latitude': '41.68446971693042', 'longitude': '-87.64699658372662', 'needs_recoding': False}"
2012-01-03T00:00:00,Completed,2012-01-04T00:00:00,12-00009809,Tree Debris,Parkway,Dispatch Clam,*Complete the Service Request,8355 S ADA ST,60620,1168783.85768698,1849355.30178488,21,6,71,41.74214933013097,-87.65715737106943,"{'latitude': '41.74214933013097', 'longitude': '-87.65715737106943', 'needs_recoding': False}"
2012-01-03T00:00:00,Completed,2012-01-04T00:00:00,12-00009967,Tree Debris,Parkway,Dispatch Clam,*Complete the Service Request,7163 N OZARK AVE,60631,1123757.37999537,1946876.84771985,41,16,9,42.01061625450764,-87.82000061062487,"{'latitude': '42.01061625450764', 'longitude': '-87.82000061062487', 'needs_recoding': False}"
2012-01-03T00:00:00,Completed,2012-01-04T00:00:00,12-00010026,Tree Debris,Alley,,,9333 S CRANDON AVE,60617,1193135.93990163,1843528.69207123,7,4,48,41.72560085951193,-87.56812257403388,"{'latitude': '41.72560085951193', 'longitude': '-87.56812257403388', 'needs_recoding': False}"
2012-01-03T00:00:00,Completed,2012-01-05T00:00:00,12-00006765,Tree Debris,Alley,Dispatch Clam,*Complete the Service Request,1253 W 107TH PL,60643,1169859.33240467,1833483.92009103,34,22,75,41.69857263980546,-87.65367593675897,"{'latitude': '41.69857263980546', 'longitude': '-87.65367593675897', 'needs_recoding': False}"
2012-01-03T00:00:00,Completed,2012-01-05T00:00:00,12-00008626,Tree Debris,Alley,Dispatch Clam,*Complete the Service Request,7941 S ARTESIAN AVE,60652,1161424.93996825,1851902.79117201,18,8,70,41.749295544030716,-87.68405006329523,"{'latitude': '41.749295544030716', 'longitude': '-87.68405006329523', 'needs_recoding': False}"
2013-01-03T00:00:00,Completed,2013-01-03T00:00:00,13-00013650,Tree Debris,,,,1302 E 73RD ST,60619,1186162.34738136,1856861.61938056,5,3,43,41.76235504004653,-87.59324676872647,"{'latitude': '41.76235504004653', 'longitude': '-87.59324676872647', 'needs_recoding': False}"
2013-01-03T00:00:00,Completed,2013-01-04T00:00:00,13-00009192,Tree Debris,Vacant Lot,Dispatch Clam,*Complete the Service Request,4362 S EMERALD AVE,60609,1172032.27247412,1875821.18219013,11,9,61,41.81470411838685,-87.64447843659521,"{'latitude': '41.81470411838685', 'longitude': '-87.64447843659521', 'needs_recoding': False}"
2013-01-03T00:00:00,Completed,2013-01-04T00:00:00,13-00011786,Tree Debris,,Dispatch Clam,*Complete the Service Request,10755 S HOXIE AVE,60617,1195227.07022223,1834202.41143262,10,4,51,41.699957385297175,-87.56076933685046,"{'latitude': '41.699957385297175', 'longitude': '-87.56076933685046', 'needs_recoding': False}"
2013-01-03T00:00:00,Completed,2013-01-04T00:00:00,13-00011799,Tree Debris,,Dispatch Clam,*Complete the Service Request,10916 S AVENUE M,60617,1201536.83688062,1833184.57306871,10,4,52,41.697006706849365,-87.53770053185707,"{'latitude': '41.697006706849365', 'longitude': '-87.53770053185707', 'needs_recoding': False}"
2013-01-03T00:00:00,Completed,2013-01-04T00:00:00,13-00012801,Tree Debris,Alley,Dispatch Clam,*Complete the Service Request,4529 S LAWLER AVE,60638,1143453.12950865,1874135.28197854,23,8,56,41.81065858275826,-87.74935361489813,"{'latitude': '41.81065858275826', 'longitude': '-87.74935361489813', 'needs_recoding': False}"
2013-01-03T00:00:00,Completed,2013-01-04T00:00:00,13-00013095,Tree Debris,,Dispatch Clam,*Complete the Service Request,10536 S TALMAN AVE,60655,1160428.22060824,1834663.81019541,19,22,72,41.70200951041691,-87.6881759062358,"{'latitude': '41.70200951041691', 'longitude': '-87.6881759062358', 'needs_recoding': False}"
2013-01-03T00:00:00,Completed,2013-01-04T00:00:00,13-00013331,Tree Debris,Alley,Dispatch Clam,*Complete the Service Request,5403 W RICE ST,60651,1140136.77150233,1905140.38998414,37,15,25,41.89580218504024,-87.76075957344217,"{'latitude': '41.89580218504024', 'longitude': '-87.76075957344217', 'needs_recoding': False}"
2013-01-03T00:00:00,Completed,2013-01-04T00:00:00,13-00013538,Tree Debris,Vacant Lot,Dispatch Clam,*Complete the Service Request,1115 E 82ND ST,60619,1185128.17512678,1850849.448904,8,4,45,41.74588140143498,-87.59722564091074,"{'latitude': '41.74588140143498', 'longitude': '-87.59722564091074', 'needs_recoding': False}"
2013-01-03T00:00:00,Completed,2013-01-04T00:00:00,13-00013613,Tree Debris,Alley,Dispatch Clam,*Complete the Service Request,4338 S ELLIS AVE,60653,1183651.87570026,1876451.79938557,4,2,39,41.816171070156045,-87.60183699154905,"{'latitude': '41.816171070156045', 'longitude': '-87.60183699154905', 'needs_recoding': False}"
2013-01-03T00:00:00,Completed,2013-01-04T00:00:00,13-00013766,Tree Debris,Parkway,Dispatch Clam,*Complete the Service Request,747 N LOTUS AVE,60644,1139778.40369485,1904432.32907368,37,15,25,41.89386573468826,-87.76209311332548,"{'latitude': '41.89386573468826', 'longitude': '-87.76209311332548', 'needs_recoding': False}"
2013-01-03T00:00:00,Completed,2013-01-04T00:00:00,13-00014243,Tree Debris,Alley,Dispatch Clam,*Complete the Service Request,7522 S UNION AVE,60620,1172934.80590467,1855042.76327165,17,6,68,41.757665942248856,-87.6417808737612,"{'latitude': '41.757665942248856', 'longitude': '-87.6417808737612', 'needs_recoding': False}"
2013-01-03T00:00:00,Completed,2013-01-08T00:00:00,13-00009762,Tree Debris,Parkway,Dispatch Clam,*Complete the Service Request,314 E 53RD ST,60615,1179091.25756871,1869942.97667538,3,2,40,41.798415612322344,-87.61876464249298,"{'latitude': '41.798415612322344', 'longitude': '-87.61876464249298', 'needs_recoding': False}"
2013-01-03T00:00:00,Completed,2013-01-23T00:00:00,13-00013773,Tree Debris,Vacant Lot,Dispatch Clam,Owner Responsibility,5229 W OHIO ST,60644,1141257.26017514,1903465.76579461,28,15,25,41.89118622187279,-87.75668554369689,"{'latitude': '41.89118622187279', 'longitude': '-87.75668554369689', 'needs_recoding': False}"
2011-01-04T00:00:00,Completed,2011-01-04T00:00:00,11-00017398,Tree Debris,,Dispatch Clam,*Complete the Service Request,9500 S VINCENNES AVE,60643,1170623.54738379,1841797.3570135,21,22,73,41.72136939332023,-87.65063641641437,"{'latitude': '41.72136939332023', 'longitude': '-87.65063641641437', 'needs_recoding': False}"
2011-01-04T00:00:00,Completed,2011-01-05T00:00:00,11-00013998,Tree Debris,Vacant Lot,Dispatch Clam,*Complete the Service Request,1605 S RIDGEWAY AVE,60623,1151635.26409614,1891750.01359626,24,10,29,41.85883919625097,-87.71887983997954,"{'latitude': '41.85883919625097', 'longitude': '-87.71887983997954', 'needs_recoding': False}"
2011-01-04T00:00:00,Completed,2011-01-05T00:00:00,11-00014141,Tree Debris,Alley,Dispatch Clam,Owner Responsibility,5480 S KENWOOD AVE,60615,1186025.56180096,1868998.98221936,4,21,41,41.79566422466143,-87.59336530465056,"{'latitude': '41.79566422466143', 'longitude': '-87.59336530465056', 'needs_recoding': False}"
2011-01-04T00:00:00,Completed,2011-01-05T00:00:00,11-00015977,Tree Debris,Parkway,Dispatch Clam,,3925 N CUMBERLAND AVE,60634,1119363.13412381,1925010.16370522,36,16,17,41.95068274397061,-87.83663567271857,"{'latitude': '41.95068274397061', 'longitude': '-87.83663567271857', 'needs_recoding': False}"
2011-01-04T00:00:00,Completed,2011-01-05T00:00:00,11-00017454,Tree Debris,Parkway,Dispatch Clam,,6207 N LENOX AVE,60646,1141503.44992693,1940967.88532107,45,16,12,41.99409109105458,-87.7548519277183,"{'latitude': '41.99409109105458', 'longitude': '-87.7548519277183', 'needs_recoding': False}"
2011-01-04T00:00:00,Completed,2011-01-05T00:00:00,11-00018598,Tree Debris,Alley,Dispatch Clam,*Complete the Service Request,7036 S WABASH AVE,60637,1177942.48607825,1858376.4886205,6,3,69,41.766702124623095,-87.6233276218623,"{'latitude': '41.766702124623095', 'longitude': '-87.6233276218623', 'needs_recoding': False}"
2011-01-04T00:00:00,Completed,2011-01-06T00:00:00,11-00012773,Tree Debris,,Dispatch Clam,*Complete the Service Request,2023 W 69TH PL,60636,1164070.63231873,1858566.70010064,17,7,67,41.76752706319924,-87.67416804539198,"{'latitude': '41.76752706319924', 'longitude': '-87.67416804539198', 'needs_recoding': False}"
2011-01-04T00:00:00,Completed,2011-01-06T00:00:00,11-00018090,Tree Debris,Alley,Dispatch Clam,*Complete the Service Request,3407 W 73RD PL,60629,1154945.58381935,1855664.48010824,18,8,66,41.75974994708636,-87.7076929730623,"{'latitude': '41.75974994708636', 'longitude': '-87.7076929730623', 'needs_recoding': False}"
2011-01-04T00:00:00,Completed,2011-01-06T00:00:00,11-00018402,Tree Debris,Parkway,,,2131 W EVERGREEN AVE,60622,1161947.20776804,1908997.93000259,32,14,24,41.90596022304782,-87.68054651395143,"{'latitude': '41.90596022304782', 'longitude': '-87.68054651395143', 'needs_recoding': False}"
2011-01-04T00:00:00,Completed,2011-01-06T00:00:00,11-00018671,Tree Debris,Alley,Dispatch Clam,*Complete the Service Request,7818 S MUSKEGON AVE,60649,1196480.80377419,1853674.09149657,7,4,43,41.75335840115226,-87.55553455276788,"{'latitude': '41.75335840115226', 'longitude': '-87.55553455276788', 'needs_recoding': False}"
2011-01-04T00:00:00,Completed,2011-01-10T00:00:00,11-00015479,Tree Debris,,Dispatch Clam,*Complete the Service Request,3358 N KILBOURN AVE,60641,1145786.59167159,1921948.8703124,30,17,16,41.941820992009745,-87.73958136290628,"{'latitude': '41.941820992009745', 'longitude': '-87.73958136290628', 'needs_recoding': False}"
2012-01-04T00:00:00,Completed - Dup,2012-01-04T00:00:00,12-00012824,Tree Debris,Parkway,,,9742 S LUELLA AVE,60617,1192905.26869877,1840596.29253425,7,4,51,41.717559694087306,-87.56906287761065,"{'latitude': '41.717559694087306', 'longitude': '-87.56906287761065', 'needs_recoding': False}"
2012-01-04T00:00:00,Completed - Dup,2012-01-04T00:00:00,12-00014061,Tree Debris,Vacant Lot,,,1437 S SPRINGFIELD AVE,60623,1150611.35666745,1892845.66466881,24,10,29,41.861865839659046,-87.7226096802855,"{'latitude': '41.861865839659046', 'longitude': '-87.7226096802855', 'needs_recoding': False}"
2012-01-04T00:00:00,Completed - Dup,2012-01-05T00:00:00,12-00015155,Tree Debris,Parkway,,,4433 S SHIELDS AVE,60609,1174718.02906598,1875445.3192768,3,9,37,41.81361321346711,-87.6346379984324,"{'latitude': '41.81361321346711', 'longitude': '-87.6346379984324', 'needs_recoding': False}"
2012-01-04T00:00:00,Completed - Dup,2012-01-05T00:00:00,12-00016377,Tree Debris,Alley,,,3661 S MICHIGAN AVE,60653,1177796.32048259,1880773.92997428,3,2,35,41.82816612866352,-87.6231851626906,"{'latitude': '41.82816612866352', 'longitude': '-87.6231851626906', 'needs_recoding': False}"
2012-01-04T00:00:00,Completed - Dup,2012-01-06T00:00:00,12-00012353,Tree Debris,,,,1515 W ARTHUR AVE,60626,1164934.55651162,1943265.98773036,40,24,1,41.99993044634179,-87.66859655688965,"{'latitude': '41.99993044634179', 'longitude': '-87.66859655688965', 'needs_recoding': False}"
2012-01-04T00:00:00,Completed,2012-01-04T00:00:00,12-00017394,Tree Debris,,Dispatch Clam,Completed,2400 N NARRAGANSETT AVE,60639,1133351.73586923,1915254.44483337,36,25,19,41.92367797549949,-87.78544267543498,"{'latitude': '41.92367797549949', 'longitude': '-87.78544267543498', 'needs_recoding': False}"
2012-01-04T00:00:00,Completed,2012-01-05T00:00:00,12-00011599,Tree Debris,Vacant Lot,Dispatch Clam,*Complete the Service Request,7243 S MARSHFIELD AVE,60636,1166596.19009789,1856676.42526689,17,7,67,41.76228641002526,-87.66496459409885,"{'latitude': '41.76228641002526', 'longitude': '-87.66496459409885', 'needs_recoding': False}"
2012-01-04T00:00:00,Completed,2012-01-05T00:00:00,12-00011606,Tree Debris,Vacant Lot,Dispatch Clam,*Complete the Service Request,7304 S ASHLAND AVE,60636,1166948.66957891,1856266.32982682,17,7,67,41.761153530175214,-87.6636844073798,"{'latitude': '41.761153530175214', 'longitude': '-87.6636844073798', 'needs_recoding': False}"
2012-01-04T00:00:00,Completed,2012-01-05T00:00:00,12-00012819,Tree Debris,Parkway,Dispatch Clam,*Complete the Service Request,9650 S LUELLA AVE,60617,1192937.319484,1841964.51346799,7,4,51,41.721313445759925,-87.56890099530565,"{'latitude': '41.721313445759925', 'longitude': '-87.56890099530565', 'needs_recoding': False}"
2012-01-04T00:00:00,Completed,2012-01-05T00:00:00,12-00012943,Tree Debris,Parkway,Dispatch Clam,*Complete the Service Request,9329 S GREENWOOD AVE,60619,1185176.24507935,1843221.81249299,8,4,47,41.724949213183656,-87.59728852981141,"{'latitude': '41.724949213183656', 'longitude': '-87.59728852981141', 'needs_recoding': False}"
2012-01-04T00:00:00,Completed,2012-01-05T00:00:00,12-00013000,Tree Debris,Alley,Dispatch Clam,*Complete the Service Request,4123 W MADISON ST,60624,1148906.80022554,1899693.13088263,28,11,26,41.88068919099959,-87.72868982447744,"{'latitude': '41.88068919099959', 'longitude': '-87.72868982447744', 'needs_recoding': False}"
2012-01-04T00:00:00,Completed,2012-01-05T00:00:00,12-00013604,Tree Debris,Alley,Dispatch Clam,*Complete the Service Request,1463 W 114TH PL,60643,1168454.81417213,1828805.48642871,34,22,75,41.68576454380431,-87.65895271797534,"{'latitude': '41.68576454380431', 'longitude': '-87.65895271797534', 'needs_recoding': False}"
2012-01-04T00:00:00,Completed,2012-01-05T00:00:00,12-00013662,Tree Debris,Alley,Dispatch Clam,*Complete the Service Request,8243 S CARPENTER ST,60620,1170750.65561128,1850154.50902421,21,6,71,41.7442998288219,-87.64992779116304,"{'latitude': '41.7442998288219', 'longitude': '-87.64992779116304', 'needs_recoding': False}"
2012-01-04T00:00:00,Completed,2012-01-05T00:00:00,12-00014561,Tree Debris,Alley,Dispatch Clam,*Complete the Service Request,144 N LOTUS AVE,60644,1139927.48332888,1900536.53781251,28,15,25,41.883172471993745,-87.76164091051619,"{'latitude': '41.883172471993745', 'longitude': '-87.76164091051619', 'needs_recoding': False}"
2012-01-04T00:00:00,Completed,2012-01-05T00:00:00,12-00015073,Tree Debris,Alley,Dispatch Clam,*Complete the Service Request,4436 S SHIELDS AVE,60609,1174718.52906598,1875426.8192768,3,9,37,41.813562436586245,-87.63463671614501,"{'latitude': '41.813562436586245', 'longitude': '-87.63463671614501', 'needs_recoding': False}"
2012-01-04T00:00:00,Completed,2012-01-05T00:00:00,12-00015137,Tree Debris,Alley,Dispatch Clam,*Complete the Service Request,4433 S SHIELDS AVE,60609,1174718.02906598,1875445.3192768,3,9,37,41.81361321346711,-87.6346379984324,"{'latitude': '41.81361321346711', 'longitude': '-87.6346379984324', 'needs_recoding': False}"
2012-01-04T00:00:00,Completed,2012-01-05T00:00:00,12-00015182,Tree Debris,Alley,Dispatch Clam,*Complete the Service Request,4454 S PRINCETON AVE,60609,1175033.8896959,1875324.22732258,3,9,37,41.81327387286161,-87.63348302508494,"{'latitude': '41.81327387286161', 'longitude': '-87.63348302508494', 'needs_recoding': False}"
2012-01-04T00:00:00,Completed,2012-01-05T00:00:00,12-00015260,Tree Debris,Parkway,Dispatch Clam,*Complete the Service Request,546 W 66TH ST,60621,1173763.53697411,1861138.07052375,20,7,68,41.77437386579226,-87.63856325248294,"{'latitude': '41.77437386579226', 'longitude': '-87.63856325248294', 'needs_recoding': False}"
2012-01-04T00:00:00,Completed,2012-01-05T00:00:00,12-00015264,Tree Debris,Alley,Dispatch Clam,*Complete the Service Request,4365 S SHIELDS AVE,60609,1174703.38638952,1875938.80019514,3,9,37,41.81496769765822,-87.63467699173705,"{'latitude': '41.81496769765822', 'longitude': '-87.63467699173705', 'needs_recoding': False}"
2012-01-04T00:00:00,Completed,2012-01-05T00:00:00,12-00015327,Tree Debris,Alley,Dispatch Clam,*Complete the Service Request,4403 S SHIELDS AVE,60609,1174710.1361274,1875722.41991969,3,9,37,41.81437377952041,-87.63465868616416,"{'latitude': '41.81437377952041', 'longitude': '-87.63465868616416', 'needs_recoding': False}"
2012-01-04T00:00:00,Completed,2012-01-05T00:00:00,12-00015372,Tree Debris,Alley,Dispatch Clam,*Complete the Service Request,4415 S SHIELDS AVE,60609,1174713.62906598,1875599.3192768,3,9,37,41.814035901980716,-87.6346495450714,"{'latitude': '41.814035901980716', 'longitude': '-87.6346495450714', 'needs_recoding': False}"
2012-01-04T00:00:00,Completed,2012-01-05T00:00:00,12-00015485,Tree Debris,Alley,Dispatch Clam,*Complete the Service Request,423 E 50TH ST,60615,1180022.52997684,1871963.79931296,3,2,38,41.80393963265386,-87.61528760714282,"{'latitude': '41.80393963265386', 'longitude': '-87.61528760714282', 'needs_recoding': False}"
2012-01-04T00:00:00,Completed,2012-01-05T00:00:00,12-00015716,Tree Debris,Alley,Dispatch Clam,*Complete the Service Request,4646 S VINCENNES AVE,60653,1180399.23471122,1874236.08102191,3,2,38,41.8101663204934,-87.61383628593661,"{'latitude': '41.8101663204934', 'longitude': '-87.61383628593661', 'needs_recoding': False}"
2012-01-04T00:00:00,Completed,2012-01-05T00:00:00,12-00015782,Tree Debris,Alley,Dispatch Clam,*Complete the Service Request,520 E 45TH ST,60653,1180563.08996564,1875294.88129472,3,2,38,41.8130679887486,-87.61320274974557,"{'latitude': '41.8130679887486', 'longitude': '-87.61320274974557', 'needs_recoding': False}"
2012-01-04T00:00:00,Completed,2012-01-05T00:00:00,12-00015844,Tree Debris,Alley,Dispatch Clam,*Complete the Service Request,800 E 47TH PL,60615,1182391.90192317,1873690.91992066,4,21,39,41.80862434389073,-87.60654443685915,"{'latitude': '41.80862434389073', 'longitude': '-87.60654443685915', 'needs_recoding': False}"
2012-01-04T00:00:00,Completed,2012-01-05T00:00:00,12-00016104,Tree Debris,Alley,Dispatch Clam,*Complete the Service Request,3726 S WABASH AVE,60653,1177341.68898086,1880223.21321947,3,2,35,41.82666521776761,-87.6248698074406,"{'latitude': '41.82666521776761', 'longitude': '-87.6248698074406', 'needs_recoding': False}"
2012-01-04T00:00:00,Completed,2012-01-05T00:00:00,12-00016311,Tree Debris,Alley,Dispatch Clam,*Complete the Service Request,3661 S MICHIGAN AVE,60653,1177796.32048259,1880773.92997428,3,2,35,41.82816612866352,-87.6231851626906,"{'latitude': '41.82816612866352', 'longitude': '-87.6231851626906', 'needs_recoding': False}"
2012-01-04T00:00:00,Completed,2012-01-06T00:00:00,12-00011977,Tree Debris,Parkway,Dispatch Clam,*Complete the Service Request,1515 W ARTHUR AVE,60626,1164934.55651162,1943265.98773036,40,24,1,41.99993044634179,-87.66859655688965,"{'latitude': '41.99993044634179', 'longitude': '-87.66859655688965', 'needs_recoding': False}"
2012-01-04T00:00:00,Completed,2012-01-06T00:00:00,12-00015112,Tree Debris,Alley,Dispatch Clam,*Complete the Service Request,4447 S STEWART AVE,60609,1174423.30999819,1875378.60981415,3,9,37,41.81343672687849,-87.63572102773261,"{'latitude': '41.81343672687849', 'longitude': '-87.63572102773261', 'needs_recoding': False}"
2012-01-04T00:00:00,Completed,2012-01-06T00:00:00,12-00016345,Tree Debris,Parkway,Dispatch Clam,*Complete the Service Request,5651 N KENNETH AVE,60646,1145664.28761285,1937180.01621205,39,17,12,41.98361877857891,-87.7396430095041,"{'latitude': '41.98361877857891', 'longitude': '-87.7396430095041', 'needs_recoding': False}"
2012-01-04T00:00:00,Completed,2012-01-09T00:00:00,12-00015426,Tree Debris,Vacant Lot,Dispatch Clam,*Complete the Service Request,1199 S THROOP ST,60607,1167890.40512649,1894830.31179037,2,12,28,41.86695707049356,-87.65912396289099,"{'latitude': '41.86695707049356', 'longitude': '-87.65912396289099', 'needs_recoding': False}"
2012-01-04T00:00:00,Completed,2012-01-09T00:00:00,12-00015918,Tree Debris,Alley,Dispatch Clam,*Complete the Service Request,3723 S GILES AVE,60653,1178873.12002237,1880365.84560356,3,2,35,41.8270218202983,-87.61924697645611,"{'latitude': '41.8270218202983', 'longitude': '-87.61924697645611', 'needs_recoding': False}"
2012-01-04T00:00:00,Completed,2012-01-09T00:00:00,12-00015973,Tree Debris,Alley,Dispatch Clam,*Complete the Service Request,3745 S GILES AVE,60653,1178876.52002237,1880218.54560356,3,2,35,41.82661754008832,-87.61923899444994,"{'latitude': '41.82661754008832', 'longitude': '-87.61923899444994', 'needs_recoding': False}"
2013-01-04T00:00:00,Completed - Dup,2013-01-04T00:00:00,13-00015061,Tree Debris,Parkway,,,10536 S TALMAN AVE,60655,1160428.22060824,1834663.81019541,19,22,72,41.70200951041691,-87.6881759062358,"{'latitude': '41.70200951041691', 'longitude': '-87.6881759062358', 'needs_recoding': False}"
2013-01-04T00:00:00,Completed,2013-01-04T00:00:00,13-00014642,Tree Debris,,Inspect for Violation,"Area Inspected, Tickets Issued",8323 S MANISTEE AVE,60617,1195944.06532453,1850313.97619225,7,4,46,41.7441512855538,-87.55761246883552,"{'latitude': '41.7441512855538', 'longitude': '-87.55761246883552', 'needs_recoding': False}"
2013-01-04T00:00:00,Completed,2013-01-04T00:00:00,13-00017590,Tree Debris,,Dispatch Clam,*Complete the Service Request,4342 S ELLIS AVE,60653,1183652.47570026,1876424.99938557,4,2,39,41.81609751500019,-87.60183562751604,"{'latitude': '41.81609751500019', 'longitude': '-87.60183562751604', 'needs_recoding': False}"
2013-01-04T00:00:00,Completed,2013-01-04T00:00:00,13-00017593,Tree Debris,,Dispatch Clam,*Complete the Service Request,4530 S LAVERGNE AVE,60638,1143786.24908451,1874136.7743211,23,8,56,41.81065645977442,-87.74813170904842,"{'latitude': '41.81065645977442', 'longitude': '-87.74813170904842', 'needs_recoding': False}"
2013-01-04T00:00:00,Completed,2013-01-04T00:00:00,13-00017596,Tree Debris,,Dispatch Clam,*Complete the Service Request,4524 S LAVERGNE AVE,60638,1143785.14908451,1874177.0743211,23,8,56,41.810767069802544,-87.74813473724723,"{'latitude': '41.810767069802544', 'longitude': '-87.74813473724723', 'needs_recoding': False}"
2013-01-04T00:00:00,Completed,2013-01-07T00:00:00,13-00015056,Tree Debris,Alley,Dispatch Clam,*Complete the Service Request,8010 S DANTE AVE,60619,1187243.6585089,1852165.10782984,8,4,45,41.74944177552102,-87.58943250931297,"{'latitude': '41.74944177552102', 'longitude': '-87.58943250931297', 'needs_recoding': False}"
2013-01-04T00:00:00,Completed,2013-01-07T00:00:00,13-00015773,Tree Debris,Parkway,Dispatch Clam,*Complete the Service Request,8732 S ESSEX AVE,60617,1194330.88373291,1847594.63759117,7,4,46,41.73672894424974,-87.5636123326379,"{'latitude': '41.73672894424974', 'longitude': '-87.5636123326379', 'needs_recoding': False}"
2013-01-04T00:00:00,Completed,2013-01-08T00:00:00,13-00016552,Tree Debris,Parkway,Dispatch Clam,*Complete the Service Request,10350 S LONGWOOD DR,60643,1165188.62017814,1836359.24998236,19,22,72,41.70656289694442,-87.6706968567472,"{'latitude': '41.70656289694442', 'longitude': '-87.6706968567472', 'needs_recoding': False}"
2013-01-04T00:00:00,Completed,2013-01-08T00:00:00,13-00018150,Tree Debris,Alley,Dispatch Clam,*Complete the Service Request,841 W 111TH ST,60643,1172585.61823363,1831234.49421281,34,22,75,41.692340395073046,-87.64375955461121,"{'latitude': '41.692340395073046', 'longitude': '-87.64375955461121', 'needs_recoding': False}"
2013-01-04T00:00:00,Completed,2013-01-10T00:00:00,13-00016070,Tree Debris,Vacant Lot,Dispatch Clam,*Complete the Service Request,501 S CALIFORNIA AVE,60612,1157790.36522444,1897642.54258097,28,11,27,41.87488579972314,-87.69612589254183,"{'latitude': '41.87488579972314', 'longitude': '-87.69612589254183', 'needs_recoding': False}"
2013-01-04T00:00:00,Completed,2013-01-11T00:00:00,13-00016908,Tree Debris,Parkway,Dispatch Clam,*Complete the Service Request,5760 N AVONDALE AVE,60631,1132035.26702255,1938007.80592477,41,16,10,41.98613859710025,-87.78974966829539,"{'latitude': '41.98613859710025', 'longitude': '-87.78974966829539', 'needs_recoding': False}"
2013-01-04T00:00:00,Completed,2013-01-17T00:00:00,13-00014999,Tree Debris,Parkway,Dispatch Clam,*Complete the Service Request,2129 W MCLEAN AVE,60647,1161835.95982768,1913552.83300509,32,14,22,41.918461527918346,-87.6808278778948,"{'latitude': '41.918461527918346', 'longitude': '-87.6808278778948', 'needs_recoding': False}"
2013-01-04T00:00:00,Completed,2013-01-17T00:00:00,13-00017480,Tree Debris,Alley,Dispatch Clam,*Complete the Service Request,1900 W FLETCHER ST,60657,1163120.93899957,1920934.96692138,32,19,5,41.93869163284882,-87.67589880425118,"{'latitude': '41.93869163284882', 'longitude': '-87.67589880425118', 'needs_recoding': False}"
2013-01-04T00:00:00,Completed,2013-01-24T00:00:00,13-00018162,Tree Debris,Parkway,Dispatch Clam,,2738 N DAYTON ST,60614,1170138.69142947,1918396.50001896,43,19,7,41.93157538711473,-87.65018135459322,"{'latitude': '41.93157538711473', 'longitude': '-87.65018135459322', 'needs_recoding': False}"
2011-01-05T00:00:00,Completed - Dup,2011-01-10T00:00:00,11-00021040,Tree Debris,,,,4501 W ROSCOE ST,60641,1145767.99167159,1922224.1703124,30,17,16,41.94257679306763,-87.73964271843872,"{'latitude': '41.94257679306763', 'longitude': '-87.73964271843872', 'needs_recoding': False}"
2011-01-05T00:00:00,Completed,2011-01-06T00:00:00,11-00021175,Tree Debris,Parkway,Dispatch Clam,*Complete the Service Request,547 W 61ST ST,60621,1173498.5024284,1864453.247672,20,7,68,41.78347695694713,-87.63943675445344,"{'latitude': '41.78347695694713', 'longitude': '-87.63943675445344', 'needs_recoding': False}"
2011-01-05T00:00:00,Completed,2011-01-06T00:00:00,11-00021442,Tree Debris,Parkway,Dispatch Clam,,4856 N KRUGER AVE,60630,1143922.54511989,1931981.93950727,39,17,14,41.96938781538362,-87.74617994163954,"{'latitude': '41.96938781538362', 'longitude': '-87.74617994163954', 'needs_recoding': False}"
2011-01-05T00:00:00,Completed,2011-01-06T00:00:00,11-00024814,Tree Debris,Alley,Dispatch Clam,*Complete the Service Request,5318 W HARRISON ST,60644,1140999.53241824,1896804.2303002,29,15,25,41.87291087730899,-87.75779613473767,"{'latitude': '41.87291087730899', 'longitude': '-87.75779613473767', 'needs_recoding': False}"
2011-01-05T00:00:00,Completed,2011-01-06T00:00:00,11-00025132,Tree Debris,Alley,Dispatch Clam,*Complete the Service Request,11512 S WALLACE ST,60628,1174371.48629107,1828497.58282342,34,5,53,41.68479046845173,-87.63730218506994,"{'latitude': '41.68479046845173', 'longitude': '-87.63730218506994', 'needs_recoding': False}"
2011-01-05T00:00:00,Completed,2011-01-06T00:00:00,11-00025364,Tree Debris,,Dispatch Clam,*Complete the Service Request,5328 N OLCOTT AVE,60656,1125347.05797466,1934519.3869318,41,16,10,41.97667985779765,-87.81442696429698,"{'latitude': '41.97667985779765', 'longitude': '-87.81442696429698', 'needs_recoding': False}"
2011-01-05T00:00:00,Completed,2011-01-07T00:00:00,11-00022642,Tree Debris,Alley,Dispatch Clam,*Complete the Service Request,10944 S ARTESIAN AVE,60655,1161992.34132132,1831984.85731884,19,22,75,41.6946256968559,-87.68252263880075,"{'latitude': '41.6946256968559', 'longitude': '-87.68252263880075', 'needs_recoding': False}"
2011-01-05T00:00:00,Completed,2011-01-07T00:00:00,11-00024008,Tree Debris,Alley,Dispatch Clam,*Complete the Service Request,8536 S PEORIA ST,60620,1171801.41857463,1848234.55016868,21,6,71,41.73900823918441,-87.64613386164277,"{'latitude': '41.73900823918441', 'longitude': '-87.64613386164277', 'needs_recoding': False}"
2011-01-05T00:00:00,Completed,2011-01-10T00:00:00,11-00018950,Tree Debris,Parkway,Dispatch Clam,*Complete the Service Request,4501 W ROSCOE ST,60641,1145767.99167159,1922224.1703124,30,17,16,41.94257679306763,-87.73964271843872,"{'latitude': '41.94257679306763', 'longitude': '-87.73964271843872', 'needs_recoding': False}"
2012-01-05T00:00:00,Completed - Dup,2012-01-06T00:00:00,12-00020380,Tree Debris,Alley,,,8036 S MARQUETTE AVE,60617,1195571.48139993,1852205.07869357,7,4,46,41.749349828076056,-87.55891526360945,"{'latitude': '41.749349828076056', 'longitude': '-87.55891526360945', 'needs_recoding': False}"
2012-01-05T00:00:00,Completed - Dup,2012-01-06T00:00:00,12-00020405,Tree Debris,Alley,,,7940 S MANISTEE AVE,60617,1195888.62007641,1852849.75746805,7,4,46,41.75111103705467,-87.5577318706452,"{'latitude': '41.75111103705467', 'longitude': '-87.5577318706452', 'needs_recoding': False}"
2012-01-05T00:00:00,Completed - Dup,2012-01-06T00:00:00,12-00023506,Tree Debris,Parkway,,,5638 N NATOMA AVE,60631,1131173.42751162,1937113.03200561,41,16,10,41.98369822010737,-87.7929403132578,"{'latitude': '41.98369822010737', 'longitude': '-87.7929403132578', 'needs_recoding': False}"
2012-01-05T00:00:00,Completed,2012-01-05T00:00:00,12-00023723,Tree Debris,,Dispatch Clam,Completed,4623 N KENTON AVE,60630,1144870.11116664,1930336.56850768,45,17,16,41.964854916323326,-87.74273740164126,"{'latitude': '41.964854916323326', 'longitude': '-87.74273740164126', 'needs_recoding': False}"
2012-01-05T00:00:00,Completed,2012-01-05T00:00:00,12-00023731,Tree Debris,,Dispatch Clam,Completed,4631 N KENTON AVE,60630,1144868.51116664,1930390.36850768,45,17,16,41.965002578040135,-87.74274192102612,"{'latitude': '41.965002578040135', 'longitude': '-87.74274192102612', 'needs_recoding': False}"
2012-01-05T00:00:00,Completed,2012-01-05T00:00:00,12-00023735,Tree Debris,,Dispatch Clam,Completed,4635 N KENTON AVE,60630,1144867.71116664,1930417.16850768,45,17,16,41.96507613448921,-87.74274418325928,"{'latitude': '41.96507613448921', 'longitude': '-87.74274418325928', 'needs_recoding': False}"
2012-01-05T00:00:00,Completed,2012-01-06T00:00:00,12-00017943,Tree Debris,Alley,Dispatch Clam,*Complete the Service Request,10107 S WALLACE ST,60628,1174085.57649141,1837864.31657883,9,22,73,41.710500533436246,-87.63807202902048,"{'latitude': '41.710500533436246', 'longitude': '-87.63807202902048', 'needs_recoding': False}"
2012-01-05T00:00:00,Completed,2012-01-06T00:00:00,12-00017945,Tree Debris,Alley,Dispatch Clam,*Complete the Service Request,10125 S WALLACE ST,60628,1174088.97649141,1837743.91657883,9,22,73,41.710170063074095,-87.63806313784342,"{'latitude': '41.710170063074095', 'longitude': '-87.63806313784342', 'needs_recoding': False}"
2012-01-05T00:00:00,Completed,2012-01-06T00:00:00,12-00017948,Tree Debris,Alley,Dispatch Clam,*Complete the Service Request,45 E 100TH PL,60628,1178469.21332448,1838352.51008841,9,5,49,41.7117419518864,-87.62200363328769,"{'latitude': '41.7117419518864', 'longitude': '-87.62200363328769', 'needs_recoding': False}"
2012-01-05T00:00:00,Completed,2012-01-06T00:00:00,12-00017950,Tree Debris,Alley,Dispatch Clam,*Complete the Service Request,745 E 104TH ST,60628,1182973.29051182,1836156.16998366,9,5,50,41.70561162717478,-87.60557665483336,"{'latitude': '41.70561162717478', 'longitude': '-87.60557665483336', 'needs_recoding': False}"
2012-01-05T00:00:00,Completed,2012-01-06T00:00:00,12-00017951,Tree Debris,Alley,Dispatch Clam,*Complete the Service Request,10456 S MARYLAND AVE,60628,1183755.36487305,1835801.38011116,9,5,50,41.704619866591386,-87.60272381887475,"{'latitude': '41.704619866591386', 'longitude': '-87.60272381887475', 'needs_recoding': False}"
2012-01-05T00:00:00,Completed,2012-01-06T00:00:00,12-00017954,Tree Debris,Alley,Dispatch Clam,*Complete the Service Request,10317 S COTTAGE GROVE AVE,60628,1182682.92941568,1836638.65012942,9,5,50,41.70694234315291,-87.6066250117447,"{'latitude': '41.70694234315291', 'longitude': '-87.6066250117447', 'needs_recoding': False}"
2012-01-05T00:00:00,Completed,2012-01-06T00:00:00,12-00017955,Tree Debris,Alley,Dispatch Clam,*Complete the Service Request,11916 S LA SALLE ST,60628,1177403.28171886,1825934.63957257,9,5,53,41.677689610424785,-87.6262806430949,"{'latitude': '41.677689610424785', 'longitude': '-87.6262806430949', 'needs_recoding': False}"
2012-01-05T00:00:00,Completed,2012-01-06T00:00:00,12-00018625,Tree Debris,Alley,Dispatch Clam,*Complete the Service Request,8208 S WINCHESTER AVE,60620,1164784.60361221,1850230.24253128,18,6,71,41.74463559574316,-87.67178599270686,"{'latitude': '41.74463559574316', 'longitude': '-87.67178599270686', 'needs_recoding': False}"
2012-01-05T00:00:00,Completed,2012-01-06T00:00:00,12-00018662,Tree Debris,Alley,Dispatch Clam,*Complete the Service Request,7724 S THROOP ST,60620,1169222.46803172,1853557.4811749,17,6,71,41.753671216411135,-87.65542900285138,"{'latitude': '41.753671216411135', 'longitude': '-87.65542900285138', 'needs_recoding': False}"
2012-01-05T00:00:00,Completed,2012-01-06T00:00:00,12-00018741,Tree Debris,Alley,Dispatch Clam,*Complete the Service Request,4713 S WABASH AVE,60615,1177508.84782488,1873795.36341847,3,2,38,41.809022866305845,-87.62445108932704,"{'latitude': '41.809022866305845', 'longitude': '-87.62445108932704', 'needs_recoding': False}"
2012-01-05T00:00:00,Completed,2012-01-06T00:00:00,12-00018762,Tree Debris,Alley,Dispatch Clam,*Complete the Service Request,4725 S WABASH AVE,60615,1177511.14782488,1873714.96341847,3,2,38,41.80880218945134,-87.62444508583395,"{'latitude': '41.80880218945134', 'longitude': '-87.62444508583395', 'needs_recoding': False}"
2012-01-05T00:00:00,Completed,2012-01-06T00:00:00,12-00019637,Tree Debris,,Dispatch Clam,*Complete the Service Request,5526 N BROADWAY,60640,1167313.17169516,1936851.15963013,48,20,77,41.98227700690919,-87.66003177020757,"{'latitude': '41.98227700690919', 'longitude': '-87.66003177020757', 'needs_recoding': False}"
2012-01-05T00:00:00,Completed,2012-01-06T00:00:00,12-00019976,Tree Debris,Alley,Dispatch Clam,*Complete the Service Request,4334 S INDIANA AVE,60653,1178322.26466634,1876323.37119109,3,2,38,41.815941487039524,-87.62139084482786,"{'latitude': '41.815941487039524', 'longitude': '-87.62139084482786', 'needs_recoding': False}"
2012-01-05T00:00:00,Completed,2012-01-06T00:00:00,12-00020040,Tree Debris,Alley,Dispatch Clam,*Complete the Service Request,4931 S MICHIGAN AVE,60615,1177990.73622225,1872360.18007647,3,2,38,41.80507367410712,-87.62272715479145,"{'latitude': '41.80507367410712', 'longitude': '-87.62272715479145', 'needs_recoding': False}"
2012-01-05T00:00:00,Completed,2012-01-06T00:00:00,12-00020112,Tree Debris,Alley,Dispatch Clam,*Complete the Service Request,7940 S MANISTEE AVE,60617,1195888.62007641,1852849.75746805,7,4,46,41.75111103705467,-87.5577318706452,"{'latitude': '41.75111103705467', 'longitude': '-87.5577318706452', 'needs_recoding': False}"
2012-01-05T00:00:00,Completed,2012-01-06T00:00:00,12-00020119,Tree Debris,Alley,Dispatch Clam,*Complete the Service Request,8036 S MARQUETTE AVE,60617,1195571.48139993,1852205.07869357,7,4,46,41.749349828076056,-87.55891526360945,"{'latitude': '41.749349828076056', 'longitude': '-87.55891526360945', 'needs_recoding': False}"
2012-01-05T00:00:00,Completed,2012-01-06T00:00:00,12-00020170,Tree Debris,Alley,Dispatch Clam,*Complete the Service Request,239 W 113TH ST,60628,1176582.62987225,1830005.6932704,34,5,49,41.688879643384425,-87.62916268873069,"{'latitude': '41.688879643384425', 'longitude': '-87.62916268873069', 'needs_recoding': False}"
2012-01-05T00:00:00,Completed,2012-01-06T00:00:00,12-00020357,Tree Debris,Alley,Dispatch Clam,*Complete the Service Request,4925 S PRINCETON AVE,60609,1175119.00013253,1872313.76222098,3,9,37,41.805010969499,-87.63326078909625,"{'latitude': '41.805010969499', 'longitude': '-87.63326078909625', 'needs_recoding': False}"
2012-01-05T00:00:00,Completed,2012-01-06T00:00:00,12-00020533,Tree Debris,Alley,Dispatch Clam,*Complete the Service Request,4749 S PRINCETON AVE,60609,1175087.38608982,1873457.21726803,3,9,37,41.8081494263301,-87.6333425795083,"{'latitude': '41.8081494263301', 'longitude': '-87.6333425795083', 'needs_recoding': False}"
2012-01-05T00:00:00,Completed,2012-01-06T00:00:00,12-00020675,Tree Debris,Alley,Dispatch Clam,*Complete the Service Request,5247 S UNION AVE,60609,1172524.36819835,1870080.93558952,3,9,61,41.798941461618305,-87.64284253791726,"{'latitude': '41.798941461618305', 'longitude': '-87.64284253791726', 'needs_recoding': False}"
2012-01-05T00:00:00,Completed,2012-01-06T00:00:00,12-00020711,Tree Debris,Alley,Dispatch Clam,*Complete the Service Request,5304 S UNION AVE,60609,1172533.58461947,1869705.51918872,3,9,61,41.79791107632735,-87.64281979864109,"{'latitude': '41.79791107632735', 'longitude': '-87.64281979864109', 'needs_recoding': False}"
2012-01-05T00:00:00,Completed,2012-01-06T00:00:00,12-00020781,Tree Debris,Alley,Dispatch Clam,*Complete the Service Request,5144 S LOWE AVE,60609,1172842.05997822,1870775.60371684,3,9,61,41.80084069438145,-87.64165699517062,"{'latitude': '41.80084069438145', 'longitude': '-87.64165699517062', 'needs_recoding': False}"
2012-01-05T00:00:00,Completed,2012-01-06T00:00:00,12-00021145,Tree Debris,Parkway,Dispatch Clam,*Complete the Service Request,5638 N NATOMA AVE,60631,1131173.42751162,1937113.03200561,41,16,10,41.98369822010737,-87.7929403132578,"{'latitude': '41.98369822010737', 'longitude': '-87.7929403132578', 'needs_recoding': False}"
2012-01-05T00:00:00,Completed,2012-01-06T00:00:00,12-00021220,Tree Debris,Parkway,Dispatch Clam,*Complete the Service Request,3112 N OSCEOLA AVE,60707,1125878.65499593,1919854.83310487,36,25,17,41.93642977358192,-87.8127995826492,"{'latitude': '41.93642977358192', 'longitude': '-87.8127995826492', 'needs_recoding': False}"
2012-01-05T00:00:00,Completed,2012-01-06T00:00:00,12-00021422,Tree Debris,Alley,Dispatch Clam,*Complete the Service Request,4411 S SHIELDS AVE,60609,1174712.4361274,1875640.31991969,3,9,37,41.81414843817448,-87.63465269807695,"{'latitude': '41.81414843817448', 'longitude': '-87.63465269807695', 'needs_recoding': False}"
2012-01-05T00:00:00,Completed,2012-01-06T00:00:00,12-00021580,Tree Debris,Alley,Dispatch Clam,*Complete the Service Request,5339 S UNION AVE,60609,1172539.88461947,1869472.01918872,3,9,61,41.79727018877738,-87.64280357412926,"{'latitude': '41.79727018877738', 'longitude': '-87.64280357412926', 'needs_recoding': False}"
2012-01-05T00:00:00,Completed,2012-01-06T00:00:00,12-00021637,Tree Debris,Alley,Dispatch Clam,*Complete the Service Request,5223 S UNION AVE,60609,1172520.46819835,1870241.83558952,3,9,61,41.79938307407196,-87.64285210028646,"{'latitude': '41.79938307407196', 'longitude': '-87.64285210028646', 'needs_recoding': False}"
2012-01-05T00:00:00,Completed,2012-01-06T00:00:00,12-00021678,Tree Debris,Alley,Dispatch Clam,*Complete the Service Request,5145 S UNION AVE,60609,1172507.60001607,1870757.82631337,3,9,61,41.80079929019617,-87.64288409134443,"{'latitude': '41.80079929019617', 'longitude': '-87.64288409134443', 'needs_recoding': False}"
2012-01-05T00:00:00,Completed,2012-01-06T00:00:00,12-00021725,Tree Debris,Alley,Dispatch Clam,*Complete the Service Request,5111 S UNION AVE,60609,1172501.90001607,1870985.62631337,3,9,61,41.80142452273781,-87.6428982845734,"{'latitude': '41.80142452273781', 'longitude': '-87.6428982845734', 'needs_recoding': False}"
2012-01-05T00:00:00,Completed,2012-01-06T00:00:00,12-00021760,Tree Debris,Alley,Dispatch Clam,*Complete the Service Request,5150 S UNION AVE,60609,1172500.00001607,1871059.32631337,3,9,61,41.80162680507155,-87.6429030814831,"{'latitude': '41.80162680507155', 'longitude': '-87.6429030814831', 'needs_recoding': False}"
2012-01-05T00:00:00,Completed,2012-01-06T00:00:00,12-00021808,Tree Debris,Alley,Dispatch Clam,*Complete the Service Request,5206 S UNION AVE,60609,1172517.66819835,1870355.83558952,3,9,61,41.79969596373595,-87.64285901034899,"{'latitude': '41.79969596373595', 'longitude': '-87.64285901034899', 'needs_recoding': False}"
2012-01-05T00:00:00,Completed,2012-01-06T00:00:00,12-00021833,Tree Debris,Alley,Dispatch Clam,*Complete the Service Request,5252 S UNION AVE,60609,1172525.18461947,1870047.31918872,3,9,61,41.79884919668594,-87.64284053420407,"{'latitude': '41.79884919668594', 'longitude': '-87.64284053420407', 'needs_recoding': False}"
2012-01-05T00:00:00,Completed,2012-01-06T00:00:00,12-00022018,Tree Debris,Alley,Dispatch Clam,*Complete the Service Request,4053 N LARAMIE AVE,60641,1140965.87159211,1926541.78999253,45,16,15,41.95451465720633,-87.75718628877051,"{'latitude': '41.95451465720633', 'longitude': '-87.75718628877051', 'needs_recoding': False}"
2012-01-05T00:00:00,Completed,2012-01-06T00:00:00,12-00022441,Tree Debris,Alley,Dispatch Clam,*Complete the Service Request,5514 S WOLCOTT AVE,60636,1164631.2800125,1867989.14801911,15,7,67,41.79337168024463,-87.67184733801874,"{'latitude': '41.79337168024463', 'longitude': '-87.67184733801874', 'needs_recoding': False}"
2012-01-05T00:00:00,Completed,2012-01-06T00:00:00,12-00022539,Tree Debris,Parkway,Dispatch Clam,*Complete the Service Request,7721 S SAGINAW AVE,60649,1195263.04507587,1854281.5930192,7,4,43,41.75505555488634,-87.55997707818803,"{'latitude': '41.75505555488634', 'longitude': '-87.55997707818803', 'needs_recoding': False}"
2012-01-05T00:00:00,Completed,2012-01-06T00:00:00,12-00022546,Tree Debris,Parkway,Dispatch Clam,*Complete the Service Request,8607 S KOSTNER AVE,60652,1148592.59146852,1847106.66060806,18,8,70,41.73639020555727,-87.73119644278366,"{'latitude': '41.73639020555727', 'longitude': '-87.73119644278366', 'needs_recoding': False}"
2012-01-05T00:00:00,Completed,2012-01-06T00:00:00,12-00022747,Tree Debris,,Dispatch Clam,*Complete the Service Request,5021 S INDIANA AVE,60615,1178449.31440412,1871776.45891207,3,2,38,41.80346147445289,-87.62106303888275,"{'latitude': '41.80346147445289', 'longitude': '-87.62106303888275', 'needs_recoding': False}"
2012-01-05T00:00:00,Completed,2012-01-06T00:00:00,12-00022750,Tree Debris,,Dispatch Clam,*Complete the Service Request,4500 S INDIANA AVE,60653,1178352.30869586,1875265.0299922,3,2,38,41.81303662578067,-87.62131280536481,"{'latitude': '41.81303662578067', 'longitude': '-87.62131280536481', 'needs_recoding': False}"
2012-01-05T00:00:00,Completed,2012-01-06T00:00:00,12-00022862,Tree Debris,Alley,Dispatch Clam,*Complete the Service Request,6038 N RICHMOND ST,60659,1155590.01098297,1939973.41351284,50,24,2,41.991089399618836,-87.70306213895829,"{'latitude': '41.991089399618836', 'longitude': '-87.70306213895829', 'needs_recoding': False}"
2012-01-05T00:00:00,Completed,2012-01-06T00:00:00,12-00024475,Tree Debris,Alley,Dispatch Clam,*Complete the Service Request,7033 S CAMPBELL AVE,60629,1160923.53566721,1857939.43348026,15,8,66,41.76587135786522,-87.68572089621792,"{'latitude': '41.76587135786522', 'longitude': '-87.68572089621792', 'needs_recoding': False}"
2012-01-05T00:00:00,Completed,2012-01-09T00:00:00,12-00020616,Tree Debris,Alley,Dispatch Clam,*Complete the Service Request,436 E 42ND PL,60653,1179894.43538166,1876924.23987561,3,2,38,41.81755443070764,-87.61560545539113,"{'latitude': '41.81755443070764', 'longitude': '-87.61560545539113', 'needs_recoding': False}"
2012-01-05T00:00:00,Completed,2012-01-09T00:00:00,12-00021818,Tree Debris,Alley,Dispatch Clam,*Complete the Service Request,1002 N LATROBE AVE,60651,1141175.77620962,1906171.79948984,37,15,25,41.898613404268325,-87.75691803304177,"{'latitude': '41.898613404268325', 'longitude': '-87.75691803304177', 'needs_recoding': False}"
2012-01-05T00:00:00,Completed,2012-01-09T00:00:00,12-00022202,Tree Debris,Parkway,Dispatch Clam,*Complete the Service Request,2052 N LOREL AVE,60639,1140386.92002472,1913213.66091446,37,25,19,41.91795158585515,-87.7596425089526,"{'latitude': '41.91795158585515', 'longitude': '-87.7596425089526', 'needs_recoding': False}"
2012-01-05T00:00:00,Completed,2012-01-09T00:00:00,12-00022921,Tree Debris,Alley,Dispatch Clam,*Complete the Service Request,4030 S ELLIS AVE,60653,1183095.94800736,1878550.8482939,4,21,36,41.82194398014235,-87.6038108539921,"{'latitude': '41.82194398014235', 'longitude': '-87.6038108539921', 'needs_recoding': False}"
2012-01-05T00:00:00,Completed,2012-01-09T00:00:00,12-00023102,Tree Debris,Alley,Dispatch Clam,*Complete the Service Request,1000 N LATROBE AVE,60651,1141176.17620962,1906158.29948984,37,15,25,41.898576351303184,-87.75691689699349,"{'latitude': '41.898576351303184', 'longitude': '-87.75691689699349', 'needs_recoding': False}"
2012-01-05T00:00:00,Completed,2012-01-09T00:00:00,12-00023375,Tree Debris,Parkway,Dispatch Clam,*Complete the Service Request,2532 W BLOOMINGDALE AVE,60647,1159075.85280812,1911859.61252622,1,14,22,41.913872381819175,-87.69101533221443,"{'latitude': '41.913872381819175', 'longitude': '-87.69101533221443', 'needs_recoding': False}"
2012-01-05T00:00:00,Completed,2012-01-10T00:00:00,12-00020231,Tree Debris,Alley,Dispatch Clam,*Complete the Service Request,5017 S PRINCETON AVE,60609,1175135.34896969,1871698.56777637,3,9,37,41.80332245087174,-87.633219207512,"{'latitude': '41.80332245087174', 'longitude': '-87.633219207512', 'needs_recoding': False}"
2012-01-05T00:00:00,Completed,2012-01-10T00:00:00,12-00021479,Tree Debris,Alley,Dispatch Clam,*Complete the Service Request,5415 S WALLACE ST,60609,1173191.3500157,1868931.63593155,3,9,61,41.79577293508418,-87.64043054700011,"{'latitude': '41.79577293508418', 'longitude': '-87.64043054700011', 'needs_recoding': False}"
2013-01-05T00:00:00,Completed,2013-01-18T00:00:00,13-00019274,Tree Debris,Alley,Dispatch Clam,*Complete the Service Request,645 N LATROBE AVE,60644,1141246.66017514,1903764.56579461,28,15,25,41.89200636072264,-87.75671709851622,"{'latitude': '41.89200636072264', 'longitude': '-87.75671709851622', 'needs_recoding': False}"
2011-01-06T00:00:00,Completed - Dup,2011-01-06T00:00:00,11-00030059,Tree Debris,,,,547 W 61ST ST,60621,1173498.5024284,1864453.247672,20,7,68,41.78347695694713,-87.63943675445344,"{'latitude': '41.78347695694713', 'longitude': '-87.63943675445344', 'needs_recoding': False}"
2011-01-06T00:00:00,Completed,2011-01-06T00:00:00,11-00029867,Tree Debris,,Dispatch Clam,*Complete the Service Request,4953 S GREENWOOD AVE,60615,1184410.58749924,1872388.19759919,4,21,39,41.80500249166538,-87.5991812511873,"{'latitude': '41.80500249166538', 'longitude': '-87.5991812511873', 'needs_recoding': False}"
2011-01-06T00:00:00,Completed,2011-01-06T00:00:00,11-00030047,Tree Debris,,Dispatch Clam,*Complete the Service Request,2024 W 69TH PL,60636,1164063.93231873,1858566.60010064,17,7,67,41.767526929684955,-87.67419260670506,"{'latitude': '41.767526929684955', 'longitude': '-87.67419260670506', 'needs_recoding': False}"
2011-01-06T00:00:00,Completed,2011-01-06T00:00:00,11-00030070,Tree Debris,,Dispatch Clam,*Complete the Service Request,9500 S GENOA AVE,60643,1170990.37607499,1841806.42172052,21,22,73,41.72138627763381,-87.6492925303735,"{'latitude': '41.72138627763381', 'longitude': '-87.6492925303735', 'needs_recoding': False}"
2011-01-06T00:00:00,Completed,2011-01-06T00:00:00,11-00030080,Tree Debris,,Dispatch Clam,*Complete the Service Request,11000 S GREEN ST,60643,1172609.53019339,1831898.79910341,34,22,75,41.69416282610504,-87.64365253562836,"{'latitude': '41.69416282610504', 'longitude': '-87.64365253562836', 'needs_recoding': False}"
2011-01-06T00:00:00,Completed,2011-01-06T00:00:00,11-00030094,Tree Debris,,Dispatch Clam,*Complete the Service Request,10057 S MORGAN ST,60643,1171424.22666969,1838125.58043174,34,22,73,41.71127603551491,-87.64781076748066,"{'latitude': '41.71127603551491', 'longitude': '-87.64781076748066', 'needs_recoding': False}"
2011-01-06T00:00:00,Completed,2011-01-07T00:00:00,11-00025842,Tree Debris,,Dispatch Clam,*Complete the Service Request,9323 S HOYNE AVE,60620,1164103.39058427,1842806.22018557,19,22,72,41.72427728103976,-87.67449029250288,"{'latitude': '41.72427728103976', 'longitude': '-87.67449029250288', 'needs_recoding': False}"
2011-01-06T00:00:00,Completed,2011-01-07T00:00:00,11-00026585,Tree Debris,,Dispatch Clam,*Complete the Service Request,3834 W 26TH ST,60623,1151124.77710553,1886447.66548538,22,10,30,41.84429891398575,-87.7208924936403,"{'latitude': '41.84429891398575', 'longitude': '-87.7208924936403', 'needs_recoding': False}"
2011-01-06T00:00:00,Completed,2011-01-07T00:00:00,11-00028120,Tree Debris,Parkway,Dispatch Clam,*Complete the Service Request,8317 S KEATING AVE,60652,1146073.72138351,1849000.05058566,18,8,70,41.7416340099636,-87.7403770877778,"{'latitude': '41.7416340099636', 'longitude': '-87.7403770877778', 'needs_recoding': False}"
2011-01-06T00:00:00,Completed,2011-01-07T00:00:00,11-00028220,Tree Debris,Alley,Dispatch Clam,*Complete the Service Request,7940 S MANISTEE AVE,60617,1195888.62007641,1852849.75746805,7,4,46,41.75111103705467,-87.5577318706452,"{'latitude': '41.75111103705467', 'longitude': '-87.5577318706452', 'needs_recoding': False}"
2011-01-06T00:00:00,Completed,2011-01-07T00:00:00,11-00028391,Tree Debris,Alley,Dispatch Clam,*Complete the Service Request,128 E 117TH PL,60628,1179154.75533212,1827063.44048862,9,5,53,41.68074758867126,-87.61983549800506,"{'latitude': '41.68074758867126', 'longitude': '-87.61983549800506', 'needs_recoding': False}"
2011-01-06T00:00:00,Completed,2011-01-07T00:00:00,11-00028499,Tree Debris,Parkway,Dispatch Clam,*Complete the Service Request,9233 S HOYNE AVE,60620,1164085.39210324,1843403.26561179,19,22,72,41.725916046228605,-87.67453948386296,"{'latitude': '41.725916046228605', 'longitude': '-87.67453948386296', 'needs_recoding': False}"
2011-01-06T00:00:00,Completed,2011-01-07T00:00:00,11-00029091,Tree Debris,Alley,Dispatch Clam,*Complete the Service Request,1438 E 72ND PL,60619,1187050.36502097,1857210.7259892,5,3,43,41.76329200856161,-87.5899810481068,"{'latitude': '41.76329200856161', 'longitude': '-87.5899810481068', 'needs_recoding': False}"
2011-01-06T00:00:00,Completed,2011-01-07T00:00:00,11-00029161,Tree Debris,Alley,Dispatch Clam,*Complete the Service Request,150 E 117TH PL,60628,1178946.15533212,1827061.54048862,9,5,53,41.68074711273672,-87.62059913133999,"{'latitude': '41.68074711273672', 'longitude': '-87.62059913133999', 'needs_recoding': False}"
2011-01-06T00:00:00,Completed,2011-01-07T00:00:00,11-00029372,Tree Debris,Alley,Dispatch Clam,*Complete the Service Request,6209 N ALBANY AVE,60659,1154564.67807791,1941039.08308724,50,24,2,41.99403429247681,-87.70680491123116,"{'latitude': '41.99403429247681', 'longitude': '-87.70680491123116', 'needs_recoding': False}"
2011-01-06T00:00:00,Completed,2011-01-07T00:00:00,11-00029378,Tree Debris,Parkway,Dispatch Clam,*Complete the Service Request,8311 S KEATING AVE,60652,1146072.22138351,1849043.35058566,18,8,70,41.74175286153332,-87.74038149064775,"{'latitude': '41.74175286153332', 'longitude': '-87.74038149064775', 'needs_recoding': False}"
2011-01-06T00:00:00,Completed,2011-01-07T00:00:00,11-00030995,Tree Debris,Parkway,Dispatch Clam,*Complete the Service Request,9237 S CLYDE AVE,60617,1191787.15120606,1844132.04131193,7,4,48,41.72728930399811,-87.57304364396104,"{'latitude': '41.72728930399811', 'longitude': '-87.57304364396104', 'needs_recoding': False}"
2011-01-06T00:00:00,Completed,2011-01-10T00:00:00,11-00028424,Tree Debris,Parkway,Dispatch Clam,*Complete the Service Request,6423 N NEW ENGLAND AVE,60631,1129704.81000257,1942817.77008481,41,16,10,41.99937784808815,-87.79821064119493,"{'latitude': '41.99937784808815', 'longitude': '-87.79821064119493', 'needs_recoding': False}"
2011-01-06T00:00:00,Completed,2011-01-10T00:00:00,11-00029021,Tree Debris,Alley,Dispatch Clam,*Complete the Service Request,7011 N OSCEOLA AVE,60631,1125862.54199187,1945985.76911605,41,16,9,42.008136153609236,-87.81227469891839,"{'latitude': '42.008136153609236', 'longitude': '-87.81227469891839', 'needs_recoding': False}"
2011-01-06T00:00:00,Completed,2011-01-11T00:00:00,11-00027961,Tree Debris,,Dispatch Clam,*Complete the Service Request,1500 S TRUMBULL AVE,60623,1153611.93382211,1892494.60032467,24,10,29,41.86084337911855,-87.71160431370724,"{'latitude': '41.86084337911855', 'longitude': '-87.71160431370724', 'needs_recoding': False}"
2012-01-06T00:00:00,Completed,2012-01-09T00:00:00,12-00024604,Tree Debris,Vacant Lot,Dispatch Clam,*Complete the Service Request,11341 S EDBROOKE AVE,60628,1179223.75842981,1829779.68958258,9,5,49,41.6881998049205,-87.6195005295266,"{'latitude': '41.6881998049205', 'longitude': '-87.6195005295266', 'needs_recoding': False}"
2012-01-06T00:00:00,Completed,2012-01-09T00:00:00,12-00024641,Tree Debris,Alley,Dispatch Clam,*Complete the Service Request,7318 N WINCHESTER AVE,60626,1162044.96006641,1948612.46988511,49,24,1,42.0146623956211,-87.67907637014406,"{'latitude': '42.0146623956211', 'longitude': '-87.67907637014406', 'needs_recoding': False}"
2012-01-06T00:00:00,Completed,2012-01-09T00:00:00,12-00025216,Tree Debris,Alley,Dispatch Clam,*Complete the Service Request,34 N PARKSIDE AVE,60644,1138603.54411501,1899697.11920397,29,15,25,41.880893097068764,-87.76652292310307,"{'latitude': '41.880893097068764', 'longitude': '-87.76652292310307', 'needs_recoding': False}"
2012-01-06T00:00:00,Completed,2012-01-09T00:00:00,12-00025303,Tree Debris,Alley,Dispatch Clam,*Complete the Service Request,540 E 46TH ST,60653,1180762.88012317,1874638.85743347,3,2,38,41.811263209700236,-87.61249010454839,"{'latitude': '41.811263209700236', 'longitude': '-87.61249010454839', 'needs_recoding': False}"
2012-01-06T00:00:00,Completed,2012-01-09T00:00:00,12-00025318,Tree Debris,Alley,Dispatch Clam,*Complete the Service Request,548 E 46TH ST,60653,1180799.48012317,1874639.95743347,3,2,38,41.81126538567668,-87.61235582581905,"{'latitude': '41.81126538567668', 'longitude': '-87.61235582581905', 'needs_recoding': False}"
2012-01-06T00:00:00,Completed,2012-01-09T00:00:00,12-00025337,Tree Debris,Parkway,Dispatch Clam,*Complete the Service Request,5634 S LA SALLE ST,60621,1176253.02937231,1867607.78392709,3,2,68,41.79207188487118,-87.62924305120276,"{'latitude': '41.79207188487118', 'longitude': '-87.62924305120276', 'needs_recoding': False}"
2012-01-06T00:00:00,Completed,2012-01-09T00:00:00,12-00025363,Tree Debris,Alley,Dispatch Clam,*Complete the Service Request,5555 S WENTWORTH AVE,60621,1175913.3086066,1867998.86343293,3,2,68,41.793152674640666,-87.63047701957706,"{'latitude': '41.793152674640666', 'longitude': '-87.63047701957706', 'needs_recoding': False}"
2012-01-06T00:00:00,Completed,2012-01-09T00:00:00,12-00025787,Tree Debris,Alley,Dispatch Clam,*Complete the Service Request,4650 S ST LAWRENCE AVE,60653,1181044.17118832,1874223.25989988,3,2,38,41.810116297259455,-87.61147116350347,"{'latitude': '41.810116297259455', 'longitude': '-87.61147116350347', 'needs_recoding': False}"
2012-01-06T00:00:00,Completed,2012-01-09T00:00:00,12-00026415,Tree Debris,Alley,Dispatch Clam,*Complete the Service Request,6033 S EBERHART AVE,60637,1180630.66001232,1865117.98003199,20,3,42,41.78514012807326,-87.61326760508396,"{'latitude': '41.78514012807326', 'longitude': '-87.61326760508396', 'needs_recoding': False}"
2012-01-06T00:00:00,Completed,2012-01-09T00:00:00,12-00026547,Tree Debris,Alley,Dispatch Clam,*Complete the Service Request,6040 S RHODES AVE,60637,1180954.0898782,1865081.40213404,20,3,42,41.785032316075636,-87.61208290560582,"{'latitude': '41.785032316075636', 'longitude': '-87.61208290560582', 'needs_recoding': False}"
2012-01-06T00:00:00,Completed,2012-01-09T00:00:00,12-00026729,Tree Debris,Parkway,Dispatch Clam,*Complete the Service Request,4219 N CLARK ST,60613,1166101.19090864,1928198.7503042,46,23,3,41.958560547308956,-87.66473744562644,"{'latitude': '41.958560547308956', 'longitude': '-87.66473744562644', 'needs_recoding': False}"
2012-01-06T00:00:00,Completed,2012-01-09T00:00:00,12-00026912,Tree Debris,Vacant Lot,Dispatch Clam,*Complete the Service Request,4937 S WABASH AVE,60615,1177550.0558025,1872307.18988976,3,2,38,41.80493825087668,-87.62434497500556,"{'latitude': '41.80493825087668', 'longitude': '-87.62434497500556', 'needs_recoding': False}"
2012-01-06T00:00:00,Completed,2012-01-09T00:00:00,12-00027425,Tree Debris,Alley,Dispatch Clam,*Complete the Service Request,6237 N TROY ST,60659,1154228.71003288,1941216.20970377,50,24,2,41.994527074699675,-87.70803599189179,"{'latitude': '41.994527074699675', 'longitude': '-87.70803599189179', 'needs_recoding': False}"
2012-01-06T00:00:00,Completed,2012-01-09T00:00:00,12-00027613,Tree Debris,Alley,Dispatch Clam,*Complete the Service Request,9344 S MICHIGAN AVE,60619,1178795.10148133,1843049.90079593,6,6,49,41.72462481223428,-87.62066775189619,"{'latitude': '41.72462481223428', 'longitude': '-87.62066775189619', 'needs_recoding': False}"
2012-01-06T00:00:00,Completed,2012-01-09T00:00:00,12-00027777,Tree Debris,Alley,Dispatch Clam,*Complete the Service Request,8014 S CHAMPLAIN AVE,60619,1181955.68988456,1852008.47377736,6,6,44,41.74913577871592,-87.60881438661063,"{'latitude': '41.74913577871592', 'longitude': '-87.60881438661063', 'needs_recoding': False}"
2012-01-06T00:00:00,Completed,2012-01-09T00:00:00,12-00027805,Tree Debris,,Dispatch Clam,*Complete the Service Request,5615 S WINCHESTER AVE,60636,1164315.79178834,1867390.58381535,15,7,67,41.79173580077578,-87.67302106629036,"{'latitude': '41.79173580077578', 'longitude': '-87.67302106629036', 'needs_recoding': False}"
2012-01-06T00:00:00,Completed,2012-01-09T00:00:00,12-00029136,Tree Debris,Alley,Dispatch Clam,*Complete the Service Request,6613 S WASHTENAW AVE,60629,1159514.46297623,1860681.27576959,15,8,66,41.773424369797034,-87.69081058508402,"{'latitude': '41.773424369797034', 'longitude': '-87.69081058508402', 'needs_recoding': False}"
2012-01-06T00:00:00,Completed,2012-01-09T00:00:00,12-00029851,Tree Debris,Parkway,Dispatch Clam,*Complete the Service Request,6605 S HARVARD AVE,60621,1175202.82907609,1861154.54691096,6,7,68,41.77438705002879,-87.6332865920124,"{'latitude': '41.77438705002879', 'longitude': '-87.6332865920124', 'needs_recoding': False}"
2012-01-06T00:00:00,Completed,2012-01-10T00:00:00,12-00025593,Tree Debris,Alley,Dispatch Clam,*Complete the Service Request,5642 S LOWE AVE,60621,1172927.19709175,1867460.28986954,3,7,68,41.791741243081404,-87.64144262873847,"{'latitude': '41.791741243081404', 'longitude': '-87.64144262873847', 'needs_recoding': False}"
2012-01-06T00:00:00,Completed,2012-01-10T00:00:00,12-00025667,Tree Debris,Alley,Dispatch Clam,*Complete the Service Request,5543 S EMERALD AVE,60621,1172247.84013265,1868024.44539684,3,7,68,41.79330432348832,-87.64391710848449,"{'latitude': '41.79330432348832', 'longitude': '-87.64391710848449', 'needs_recoding': False}"
2012-01-06T00:00:00,Completed,2012-01-10T00:00:00,12-00025692,Tree Debris,Alley,Dispatch Clam,,5546 S UNION AVE,60621,1172579.56419498,1868017.79716827,3,7,68,41.79327877359616,-87.64270090766225,"{'latitude': '41.79327877359616', 'longitude': '-87.64270090766225', 'needs_recoding': False}"
2012-01-06T00:00:00,Completed,2012-01-10T00:00:00,12-00025717,Tree Debris,Alley,Dispatch Clam,*Complete the Service Request,5518 S EMERALD AVE,60621,1172243.94013265,1868164.74539684,3,7,68,41.793689407704946,-87.64392728368844,"{'latitude': '41.793689407704946', 'longitude': '-87.64392728368844', 'needs_recoding': False}"
2012-01-06T00:00:00,Completed,2012-01-10T00:00:00,12-00028250,Tree Debris,Parkway,Dispatch Clam,*Complete the Service Request,3720 N KEELER AVE,60641,1147744.19059266,1924398.9969229,38,17,16,41.94850690991333,-87.73232315173529,"{'latitude': '41.94850690991333', 'longitude': '-87.73232315173529', 'needs_recoding': False}"
2012-01-06T00:00:00,Completed,2012-01-12T00:00:00,12-00025736,Tree Debris,Alley,Dispatch Clam,*Complete the Service Request,4925 S WELLS ST,60609,1175331.30991238,1872319.73988425,3,9,37,41.805022624715306,-87.63248195307297,"{'latitude': '41.805022624715306', 'longitude': '-87.63248195307297', 'needs_recoding': False}"
2012-01-06T00:00:00,Completed,2012-01-12T00:00:00,12-00025757,Tree Debris,Alley,Dispatch Clam,*Complete the Service Request,4931 S WELLS ST,60609,1175335.90991238,1872279.33988425,3,9,37,41.80491166029995,-87.63246629057718,"{'latitude': '41.80491166029995', 'longitude': '-87.63246629057718', 'needs_recoding': False}"
2012-01-06T00:00:00,Completed,2012-01-12T00:00:00,12-00025935,Tree Debris,Parkway,Dispatch Clam,Completed,8000 W BERWYN AVE,60656,1121991.0609966,1934081.47222427,41,16,10,41.97553329204746,-87.826778216124,"{'latitude': '41.97553329204746', 'longitude': '-87.826778216124', 'needs_recoding': False}"
2013-01-06T00:00:00,Completed,2013-01-07T00:00:00,13-00020977,Tree Debris,Vacant Lot,Dispatch Clam,*Complete the Service Request,10612 S EDBROOKE AVE,60628,1179138.29110852,1834585.81663374,9,5,49,41.70139044005274,-87.61966763425559,"{'latitude': '41.70139044005274', 'longitude': '-87.61966763425559', 'needs_recoding': False}"
2013-01-06T00:00:00,Completed,2013-01-08T00:00:00,13-00021431,Tree Debris,Alley,Dispatch Clam,*Complete the Service Request,6300 S WOODLAWN AVE,60637,1185298.81881898,1863474.69778884,20,3,42,41.780522268871515,-87.59620394415576,"{'latitude': '41.780522268871515', 'longitude': '-87.59620394415576', 'needs_recoding': False}"
2013-01-06T00:00:00,Completed,2013-01-11T00:00:00,13-00021242,Tree Debris,Alley,Dispatch Clam,*Complete the Service Request,2409 W OHIO ST,60612,1160208.85057088,1903936.41867544,26,12,24,41.892107145656034,-87.68707219063481,"{'latitude': '41.892107145656034', 'longitude': '-87.68707219063481', 'needs_recoding': False}"
2013-01-06T00:00:00,Completed,2013-01-14T00:00:00,13-00021503,Tree Debris,Alley,Dispatch Clam,*Complete the Service Request,3044 W 42ND ST,60632,1156754.37000458,1876633.76001899,14,9,58,41.817256342092016,-87.70049804525136,"{'latitude': '41.817256342092016', 'longitude': '-87.70049804525136', 'needs_recoding': False}"
2011-01-07T00:00:00,Completed,2011-01-07T00:00:00,11-00036739,Tree Debris,,Dispatch Clam,*Complete the Service Request,4309 W 25TH PL,60623,1148257.9146142,1886709.00578755,22,10,30,41.845071684560445,-87.73140677082365,"{'latitude': '41.845071684560445', 'longitude': '-87.73140677082365', 'needs_recoding': False}"
2011-01-07T00:00:00,Completed,2011-01-10T00:00:00,11-00032067,Tree Debris,,Dispatch Clam,*Complete the Service Request,9155 S BALTIMORE AVE,60617,1198488.36792552,1844848.18562194,10,4,46,41.72908942027536,-87.54847273297007,"{'latitude': '41.72908942027536', 'longitude': '-87.54847273297007', 'needs_recoding': False}"
2011-01-07T00:00:00,Completed,2011-01-10T00:00:00,11-00033988,Tree Debris,Parkway,Dispatch Clam,*Complete the Service Request,4614 W GRACE ST,60641,1144850.14998342,1924862.4499996,38,17,15,41.94983385956569,-87.74294945785138,"{'latitude': '41.94983385956569', 'longitude': '-87.74294945785138', 'needs_recoding': False}"
2011-01-07T00:00:00,Completed,2011-01-10T00:00:00,11-00035693,Tree Debris,Parkway,Dispatch Clam,*Complete the Service Request,6905 N MCALPIN AVE,60646,1133413.27092234,1945746.7705918,41,16,12,42.00735085325604,-87.78449888132654,"{'latitude': '42.00735085325604', 'longitude': '-87.78449888132654', 'needs_recoding': False}"
2011-01-07T00:00:00,Completed,2011-01-10T00:00:00,11-00035713,Tree Debris,Alley,Dispatch Clam,*Complete the Service Request,2811 N NAGLE AVE,60634,1132933.17997342,1917983.93807818,36,25,19,41.93117535554348,-87.78691672448532,"{'latitude': '41.93117535554348', 'longitude': '-87.78691672448532', 'needs_recoding': False}"
2011-01-07T00:00:00,Completed,2011-01-10T00:00:00,11-00035821,Tree Debris,Parkway,Dispatch Clam,*Complete the Service Request,11001 S HOYNE AVE,60643,1164277.88232856,1831780.03926885,19,22,75,41.69401594699556,-87.67416030776019,"{'latitude': '41.69401594699556', 'longitude': '-87.67416030776019', 'needs_recoding': False}"
2011-01-07T00:00:00,Completed,2011-01-10T00:00:00,11-00036231,Tree Debris,Alley,Dispatch Clam,*Complete the Service Request,9850 S AVENUE M,60617,1201467.06082368,1840724.60341315,10,4,52,41.71769894881563,-87.5377009320276,"{'latitude': '41.71769894881563', 'longitude': '-87.5377009320276', 'needs_recoding': False}"
2011-01-07T00:00:00,Completed,2011-01-10T00:00:00,11-00037708,Tree Debris,Alley,Dispatch Clam,*Complete the Service Request,6649 W GREGORY ST,60656,1130840.85998431,1936533.9700199,41,16,10,41.98211497036777,-87.79417686975502,"{'latitude': '41.98211497036777', 'longitude': '-87.79417686975502', 'needs_recoding': False}"
2011-01-07T00:00:00,Completed,2011-01-11T00:00:00,11-00034988,Tree Debris,Vacant Lot,Dispatch Clam,*Complete the Service Request,5545 S UNION AVE,60621,1172579.46419498,1868023.39716827,3,7,68,41.79329414280369,-87.64270110938486,"{'latitude': '41.79329414280369', 'longitude': '-87.64270110938486', 'needs_recoding': False}"
2011-01-07T00:00:00,Completed,2011-01-12T00:00:00,11-00035018,Tree Debris,Alley,Dispatch Clam,*Complete the Service Request,7801 S LOWE AVE,60620,1173319.17722771,1853159.18721239,17,6,71,41.752488687173575,-87.64042780320575,"{'latitude': '41.752488687173575', 'longitude': '-87.64042780320575', 'needs_recoding': False}"
2011-01-07T00:00:00,Completed,2011-01-12T00:00:00,11-00038027,Tree Debris,Alley,Dispatch Clam,*Complete the Service Request,1141 W 111TH ST,60643,1170694.76661392,1831188.63261074,34,22,75,41.692255873646445,-87.65068359132698,"{'latitude': '41.692255873646445', 'longitude': '-87.65068359132698', 'needs_recoding': False}"
2012-01-07T00:00:00,Completed - Dup,2012-01-09T00:00:00,12-00030537,Tree Debris,Parkway,,,2052 N LOREL AVE,60639,1140386.92002472,1913213.66091446,37,25,19,41.91795158585515,-87.7596425089526,"{'latitude': '41.91795158585515', 'longitude': '-87.7596425089526', 'needs_recoding': False}"
2012-01-07T00:00:00,Completed,2012-01-09T00:00:00,12-00030753,Tree Debris,Parkway,Dispatch Clam,*Complete the Service Request,5319 S MOZART ST,60632,1158277.62398306,1869251.43472171,14,9,63,41.796967360201606,-87.69511139185357,"{'latitude': '41.796967360201606', 'longitude': '-87.69511139185357', 'needs_recoding': False}"
2012-01-07T00:00:00,Completed,2012-01-09T00:00:00,12-00031155,Tree Debris,Parkway,Dispatch Clam,*Complete the Service Request,1424 S PLYMOUTH CT,60605,1176256.56302645,1893726.13011734,2,1,33,41.86374271482584,-87.6284442936763,"{'latitude': '41.86374271482584', 'longitude': '-87.6284442936763', 'needs_recoding': False}"
2012-01-07T00:00:00,Completed,2012-01-09T00:00:00,12-00031687,Tree Debris,Alley,Dispatch Clam,*Complete the Service Request,3742 N MAGNOLIA AVE,60613,1167292.81543308,1925026.99532217,44,19,6,41.94983152666235,-87.66044815296416,"{'latitude': '41.94983152666235', 'longitude': '-87.66044815296416', 'needs_recoding': False}"
2012-01-07T00:00:00,Completed,2012-01-10T00:00:00,12-00030857,Tree Debris,Parkway,Dispatch Clam,,5716 S NEW ENGLAND AVE,60638,1131368.72758631,1865866.04369766,23,8,56,41.78818307118733,-87.79386930084407,"{'latitude': '41.78818307118733', 'longitude': '-87.79386930084407', 'needs_recoding': False}"
2013-01-07T00:00:00,Completed - Dup,2013-01-07T00:00:00,13-00022794,Tree Debris,Vacant Lot,,,5819 S CALUMET AVE,60637,1179476.7070907,1866505.84809363,20,2,40,41.78897501196192,-87.61745609779183,"{'latitude': '41.78897501196192', 'longitude': '-87.61745609779183', 'needs_recoding': False}"
2013-01-07T00:00:00,Completed - Dup,2013-01-07T00:00:00,13-00023846,Tree Debris,Alley,,,2256 S ARCHER AVE,60616,1173967.70223317,1889360.0175673,25,9,34,41.851813044008985,-87.63697648190912,"{'latitude': '41.851813044008985', 'longitude': '-87.63697648190912', 'needs_recoding': False}"
2013-01-07T00:00:00,Completed - Dup,2013-01-07T00:00:00,13-00025006,Tree Debris,Vacant Lot,,,5819 S CALUMET AVE,60637,1179476.7070907,1866505.84809363,20,2,40,41.78897501196192,-87.61745609779183,"{'latitude': '41.78897501196192', 'longitude': '-87.61745609779183', 'needs_recoding': False}"
2013-01-07T00:00:00,Completed - Dup,2013-01-14T00:00:00,13-00025816,Tree Debris,,,,3044 W 42ND ST,60632,1156754.37000458,1876633.76001899,14,9,58,41.817256342092016,-87.70049804525136,"{'latitude': '41.817256342092016', 'longitude': '-87.70049804525136', 'needs_recoding': False}"
2013-01-07T00:00:00,Completed,2013-01-07T00:00:00,13-00025674,Tree Debris,,Dispatch Clam,*Complete the Service Request,1406 N LA SALLE DR,60610,1174871.40829362,1909767.16469386,43,18,8,41.907791337815226,-87.63304852958102,"{'latitude': '41.907791337815226', 'longitude': '-87.63304852958102', 'needs_recoding': False}"
2013-01-07T00:00:00,Completed,2013-01-07T00:00:00,13-00025986,Tree Debris,,Dispatch Clam,*Complete the Service Request,6601 N WESTERN AVE,60645,1159118.90472022,1943752.07010423,50,24,2,42.00138617169963,-87.6899775233851,"{'latitude': '42.00138617169963', 'longitude': '-87.6899775233851', 'needs_recoding': False}"
2013-01-07T00:00:00,Completed,2013-01-07T00:00:00,13-00025990,Tree Debris,,Dispatch Clam,*Complete the Service Request,5801 N NATOMA AVE,60631,1130845.73576667,1938135.1498151,41,16,10,41.986508674159566,-87.79412186456132,"{'latitude': '41.986508674159566', 'longitude': '-87.79412186456132', 'needs_recoding': False}"
2013-01-07T00:00:00,Completed,2013-01-07T00:00:00,13-00025998,Tree Debris,,Dispatch Clam,*Complete the Service Request,5801 N PULASKI RD,60646,1148683.49667666,1938041.67998153,39,17,13,41.985925274045364,-87.72851641198686,"{'latitude': '41.985925274045364', 'longitude': '-87.72851641198686', 'needs_recoding': False}"
2013-01-07T00:00:00,Completed,2013-01-07T00:00:00,13-00026569,Tree Debris,,Dispatch Clam,*Complete the Service Request,2600 N KOSTNER AVE,60639,1146598.58032151,1917019.22003356,31,25,20,41.928278113754814,-87.73672302108417,"{'latitude': '41.928278113754814', 'longitude': '-87.73672302108417', 'needs_recoding': False}"
2013-01-07T00:00:00,Completed,2013-01-08T00:00:00,13-00022083,Tree Debris,Vacant Lot,Dispatch Clam,*Complete the Service Request,2043 W 68TH ST,60636,1163932.83123429,1859557.33716707,17,7,67,41.77024840432892,-87.6746453398186,"{'latitude': '41.77024840432892', 'longitude': '-87.6746453398186', 'needs_recoding': False}"
2013-01-07T00:00:00,Completed,2013-01-08T00:00:00,13-00023900,Tree Debris,Parkway,Dispatch Clam,*Complete the Service Request,7626 S HOYNE AVE,60620,1163686.93986985,1854067.86452533,18,6,71,41.75518968193144,-87.67570051741139,"{'latitude': '41.75518968193144', 'longitude': '-87.67570051741139', 'needs_recoding': False}"
2013-01-07T00:00:00,Completed,2013-01-08T00:00:00,13-00025460,Tree Debris,Alley,Dispatch Clam,*Complete the Service Request,9600 S LONGWOOD DR,60643,1165591.40411228,1841005.24657175,19,22,72,41.71930374591811,-87.66909061956531,"{'latitude': '41.71930374591811', 'longitude': '-87.66909061956531', 'needs_recoding': False}"
2013-01-07T00:00:00,Completed,2013-01-09T00:00:00,13-00025999,Tree Debris,Alley,Dispatch Clam,*Complete the Service Request,9422 S CALUMET AVE,60619,1180239.95640798,1842576.13428062,6,6,49,41.72329179160937,-87.61538977215588,"{'latitude': '41.72329179160937', 'longitude': '-87.61538977215588', 'needs_recoding': False}"
2013-01-07T00:00:00,Completed,2013-01-10T00:00:00,13-00024735,Tree Debris,,Dispatch Clam,*Complete the Service Request,3728 W 59TH ST,60629,1152529.20798184,1865227.88787483,14,8,62,41.78604133109824,-87.7162976027093,"{'latitude': '41.78604133109824', 'longitude': '-87.7162976027093', 'needs_recoding': False}"
2013-01-07T00:00:00,Completed,2013-01-11T00:00:00,13-00024658,Tree Debris,Alley,Dispatch Clam,*Complete the Service Request,5058 N KIMBALL AVE,60625,1152799.61997009,1933467.39003054,39,17,13,41.97329240139085,-87.71349913467309,"{'latitude': '41.97329240139085', 'longitude': '-87.71349913467309', 'needs_recoding': False}"
2013-01-07T00:00:00,Completed,2013-01-11T00:00:00,13-00026254,Tree Debris,Parkway,Dispatch Clam,*Complete the Service Request,7646 W RASCHER AVE,60656,1124364.47360547,1935283.14013194,41,16,10,41.97879195495453,-87.81802353321598,"{'latitude': '41.97879195495453', 'longitude': '-87.81802353321598', 'needs_recoding': False}"
2013-01-07T00:00:00,Completed,2013-01-18T00:00:00,13-00026342,Tree Debris,Parkway,Dispatch Clam,*Complete the Service Request,5827 W IOWA ST,60651,1137380.3858143,1905410.57509408,29,15,25,41.896593638309035,-87.77087682659086,"{'latitude': '41.896593638309035', 'longitude': '-87.77087682659086', 'needs_recoding': False}"
2013-01-07T00:00:00,Completed,2013-01-24T00:00:00,13-00022326,Tree Debris,Parkway,Dispatch Clam,*Complete the Service Request,2121 W ADDISON ST,60618,1161491.90712602,1923885.05556962,47,19,5,41.94682097314563,-87.68180347429613,"{'latitude': '41.94682097314563', 'longitude': '-87.68180347429613', 'needs_recoding': False}"
2013-01-07T00:00:00,Completed,2013-01-24T00:00:00,13-00025913,Tree Debris,Parkway,Dispatch Clam,*Complete the Service Request,2954 N LINDER AVE,60641,1139192.08909206,1919100.84737737,31,25,19,41.93412851048671,-87.76388879783975,"{'latitude': '41.93412851048671', 'longitude': '-87.76388879783975', 'needs_recoding': False}"
2013-01-07T00:00:00,Completed,2013-01-28T00:00:00,13-00025262,Tree Debris,Alley,Dispatch Clam,*Complete the Service Request,1101 N LATROBE AVE,60651,1141158.45651471,1906831.41871833,37,15,25,41.900423796167615,-87.75696537135494,"{'latitude': '41.900423796167615', 'longitude': '-87.75696537135494', 'needs_recoding': False}"
2013-01-07T00:00:00,Completed,2013-01-28T00:00:00,13-00025778,Tree Debris,,,,5209 W EDDY ST,60641,1141009.50871099,1923116.31388971,38,16,15,41.945114025991415,-87.75711053240794,"{'latitude': '41.945114025991415', 'longitude': '-87.75711053240794', 'needs_recoding': False}"
2011-01-08T00:00:00,Completed,2011-01-10T00:00:00,11-00038385,Tree Debris,Parkway,Dispatch Clam,*Complete the Service Request,6846 N WASHTENAW AVE,60645,1157092.80818505,1945413.57952144,50,24,2,42.00598694860398,-87.69738583613638,"{'latitude': '42.00598694860398', 'longitude': '-87.69738583613638', 'needs_recoding': False}"
2011-01-08T00:00:00,Completed,2011-01-11T00:00:00,11-00038519,Tree Debris,Parkway,Dispatch Clam,*Complete the Service Request,3440 S CALIFORNIA AVE,60608,1158260.96302756,1881660.59447085,12,9,58,41.83102000831189,-87.69483437411132,"{'latitude': '41.83102000831189', 'longitude': '-87.69483437411132', 'needs_recoding': False}"
2012-01-08T00:00:00,Completed,2012-01-09T00:00:00,12-00032118,Tree Debris,Parkway,Dispatch Clam,*Complete the Service Request,116 W 111TH PL,60628,1177401.77780417,1831019.30449496,34,5,49,41.69164272794037,-87.62613336893381,"{'latitude': '41.69164272794037', 'longitude': '-87.62613336893381', 'needs_recoding': False}"
2012-01-08T00:00:00,Completed,2012-01-09T00:00:00,12-00032196,Tree Debris,Alley,Dispatch Clam,*Complete the Service Request,6021 S EBERHART AVE,60637,1180629.16001232,1865198.28003199,20,3,42,41.7853605133043,-87.61327063908932,"{'latitude': '41.7853605133043', 'longitude': '-87.61327063908932', 'needs_recoding': False}"
2012-01-08T00:00:00,Completed,2012-01-09T00:00:00,12-00032461,Tree Debris,Parkway,Dispatch Clam,*Complete the Service Request,10800 S STATE ST,60628,1178166.9598315,1833361.42211009,34,5,49,41.69805256146497,-87.62326127303605,"{'latitude': '41.69805256146497', 'longitude': '-87.62326127303605', 'needs_recoding': False}"
2012-01-08T00:00:00,Completed,2012-01-09T00:00:00,12-00032467,Tree Debris,Parkway,Dispatch Clam,*Complete the Service Request,10756 S STATE ST,60628,1178158.3598315,1833649.12211009,34,5,49,41.69884224560398,-87.62328407717538,"{'latitude': '41.69884224560398', 'longitude': '-87.62328407717538', 'needs_recoding': False}"
2012-01-08T00:00:00,Completed,2012-01-10T00:00:00,12-00032884,Tree Debris,Parkway,Dispatch Clam,*Complete the Service Request,4918 W WINNEMAC AVE,60630,1142676.93767568,1933128.1746863,45,16,12,41.9725565099205,-87.75073144078692,"{'latitude': '41.9725565099205', 'longitude': '-87.75073144078692', 'needs_recoding': False}"
2013-01-08T00:00:00,Completed - Dup,2013-01-18T00:00:00,13-00028025,Tree Debris,,,,5229 W OHIO ST,60644,1141257.26017514,1903465.76579461,28,15,25,41.89118622187279,-87.75668554369689,"{'latitude': '41.89118622187279', 'longitude': '-87.75668554369689', 'needs_recoding': False}"
2013-01-08T00:00:00,Completed,2013-01-08T00:00:00,13-00030610,Tree Debris,,Dispatch Clam,*Complete the Service Request,3721 W 111TH ST,60655,1153515.44991685,1830735.05323137,19,22,74,41.69136756309573,-87.71359224639448,"{'latitude': '41.69136756309573', 'longitude': '-87.71359224639448', 'needs_recoding': False}"
2013-01-08T00:00:00,Completed,2013-01-08T00:00:00,13-00030614,Tree Debris,,Dispatch Clam,*Complete the Service Request,2427 W 113TH ST,60655,1162089.50998207,1829626.11947437,19,22,75,41.6881508834004,-87.68223215093664,"{'latitude': '41.6881508834004', 'longitude': '-87.68223215093664', 'needs_recoding': False}"
2013-01-08T00:00:00,Completed,2013-01-08T00:00:00,13-00030736,Tree Debris,,Dispatch Clam,*Complete the Service Request,3117 S RHODES AVE,60616,1180410.37348422,1884332.6100968,4,2,35,41.83787170552251,-87.61348515524323,"{'latitude': '41.83787170552251', 'longitude': '-87.61348515524323', 'needs_recoding': False}"
2013-01-08T00:00:00,Completed,2013-01-08T00:00:00,13-00030743,Tree Debris,,Dispatch Clam,*Complete the Service Request,2210 W PERSHING RD,60609,1162179.78488213,1878783.11686906,11,9,59,41.82304305749919,-87.68053614142343,"{'latitude': '41.82304305749919', 'longitude': '-87.68053614142343', 'needs_recoding': False}"
2013-01-08T00:00:00,Completed,2013-01-08T00:00:00,13-00030753,Tree Debris,,Dispatch Clam,*Complete the Service Request,5701 S NARRAGANSETT AVE,60638,1134694.4225753,1866060.30009191,23,8,56,41.788658236528065,-87.78167040585895,"{'latitude': '41.788658236528065', 'longitude': '-87.78167040585895', 'needs_recoding': False}"
2013-01-08T00:00:00,Completed,2013-01-08T00:00:00,13-00030765,Tree Debris,,Dispatch Clam,*Complete the Service Request,5223 S ARCHER AVE,60632,1147230.03998234,1870212.65982066,23,8,57,41.79982304739428,-87.7356001501604,"{'latitude': '41.79982304739428', 'longitude': '-87.7356001501604', 'needs_recoding': False}"
2013-01-08T00:00:00,Completed,2013-01-09T00:00:00,13-00031129,Tree Debris,Alley,Dispatch Clam,*Complete the Service Request,8459 S DR MARTIN LUTHER KING JR DR,60619,1180389.69292047,1848991.99559043,6,6,44,41.740894260068494,-87.61464507463683,"{'latitude': '41.740894260068494', 'longitude': '-87.61464507463683', 'needs_recoding': False}"
2013-01-08T00:00:00,Completed,2013-01-09T00:00:00,13-00031144,Tree Debris,Vacant Lot,Dispatch Clam,*Complete the Service Request,6836 S CLAREMONT AVE,60636,1161912.8738832,1859269.90241434,17,8,66,41.7695018557863,-87.68205768907708,"{'latitude': '41.7695018557863', 'longitude': '-87.68205768907708', 'needs_recoding': False}"
2013-01-08T00:00:00,Completed,2013-01-10T00:00:00,13-00029143,Tree Debris,Alley,Dispatch Clam,*Complete the Service Request,2039 W 83RD ST,60620,1164092.84997862,1849601.84001056,18,6,71,41.742925731251844,-87.67433831212647,"{'latitude': '41.742925731251844', 'longitude': '-87.67433831212647', 'needs_recoding': False}"
2013-01-08T00:00:00,Completed,2013-01-11T00:00:00,13-00030256,Tree Debris,Parkway,Dispatch Clam,*Complete the Service Request,13106 S EBERHART AVE,60827,1181736.02470538,1818523.63792903,9,5,54,41.65725405653922,-87.61064897729653,"{'latitude': '41.65725405653922', 'longitude': '-87.61064897729653', 'needs_recoding': False}"
2013-01-08T00:00:00,Completed,2013-01-11T00:00:00,13-00031301,Tree Debris,Parkway,Dispatch Clam,*Complete the Service Request,4909 N PULASKI RD,60630,1148841.0710737,1932322.77241162,39,17,14,41.97022916285809,-87.72808547507135,"{'latitude': '41.97022916285809', 'longitude': '-87.72808547507135', 'needs_recoding': False}"
2013-01-08T00:00:00,Completed,2013-01-11T00:00:00,13-00031466,Tree Debris,Parkway,Dispatch Clam,*Complete the Service Request,5630 W WILSON AVE,60630,1137973.67677831,1930022.95987741,45,16,15,41.96412198814778,-87.76810179749309,"{'latitude': '41.96412198814778', 'longitude': '-87.76810179749309', 'needs_recoding': False}"
2013-01-08T00:00:00,Completed,2013-01-14T00:00:00,13-00027321,Tree Debris,Parkway,Dispatch Clam,*Complete the Service Request,1254 W 50TH ST,60609,1168728.10991796,1871620.58310534,16,9,61,41.803249263986345,-87.65671981411195,"{'latitude': '41.803249263986345', 'longitude': '-87.65671981411195', 'needs_recoding': False}"
2013-01-08T00:00:00,Completed,2013-01-14T00:00:00,13-00028512,Tree Debris,Alley,Dispatch Clam,*Complete the Service Request,1252 W 50TH ST,60609,1168738.00991796,1871620.78310534,16,9,61,41.803249598945506,-87.65668350037978,"{'latitude': '41.803249598945506', 'longitude': '-87.65668350037978', 'needs_recoding': False}"
2013-01-08T00:00:00,Completed,2013-01-17T00:00:00,13-00030224,Tree Debris,,Dispatch Clam,*Complete the Service Request,6133 N RAVENSWOOD AVE,60660,1163253.59012838,1940662.1173219,40,24,77,41.99282099530334,-87.6748540810265,"{'latitude': '41.99282099530334', 'longitude': '-87.6748540810265', 'needs_recoding': False}"
2013-01-08T00:00:00,Completed,2013-01-17T00:00:00,13-00031551,Tree Debris,Alley,Dispatch Clam,*Complete the Service Request,183 N LARAMIE AVE,60644,1141679.14837927,1900870.4199307,28,15,25,41.88405648484963,-87.75520034818084,"{'latitude': '41.88405648484963', 'longitude': '-87.75520034818084', 'needs_recoding': False}"
2013-01-08T00:00:00,Completed,2013-01-18T00:00:00,13-00028080,Tree Debris,,Dispatch Clam,*Complete the Service Request,38 N LATROBE AVE,60644,1141383.93989756,1899794.99258919,28,15,25,41.88111082987646,-87.7563109529167,"{'latitude': '41.88111082987646', 'longitude': '-87.7563109529167', 'needs_recoding': False}"
2013-01-08T00:00:00,Completed,2013-01-18T00:00:00,13-00031472,Tree Debris,Alley,Dispatch Clam,*Complete the Service Request,220 N LA CROSSE AVE,60644,1144003.87426575,1901119.24370699,28,15,25,41.884695993568045,-87.74665735212515,"{'latitude': '41.884695993568045', 'longitude': '-87.74665735212515', 'needs_recoding': False}"
2011-01-09T00:00:00,Completed,2011-01-10T00:00:00,11-00039617,Tree Debris,Parkway,Dispatch Clam,*Complete the Service Request,700 N LOCKWOOD AVE,60644,1140900.79650262,1904117.43059151,37,15,25,41.89298103552392,-87.75797863238581,"{'latitude': '41.89298103552392', 'longitude': '-87.75797863238581', 'needs_recoding': False}"
2011-01-09T00:00:00,Completed,2011-01-12T00:00:00,11-00039817,Tree Debris,Alley,Dispatch Clam,*Complete the Service Request,9431 S NORMAL AVE,60620,1174623.90432308,1842355.30273407,21,22,73,41.72281248582257,-87.63596736093334,"{'latitude': '41.72281248582257', 'longitude': '-87.63596736093334', 'needs_recoding': False}"
2011-01-09T00:00:00,Completed,2011-01-20T00:00:00,11-00039552,Tree Debris,Parkway,Dispatch Clam,*Complete the Service Request,547 W 61ST ST,60621,1173498.5024284,1864453.247672,20,7,68,41.78347695694713,-87.63943675445344,"{'latitude': '41.78347695694713', 'longitude': '-87.63943675445344', 'needs_recoding': False}"
2012-01-09T00:00:00,Completed - Dup,2012-01-09T00:00:00,12-00033587,Tree Debris,,,,1424 S PLYMOUTH CT,60605,1176256.56302645,1893726.13011734,2,1,33,41.86374271482584,-87.6284442936763,"{'latitude': '41.86374271482584', 'longitude': '-87.6284442936763', 'needs_recoding': False}"
2012-01-09T00:00:00,Completed - Dup,2012-01-10T00:00:00,12-00033114,Tree Debris,,,,5716 S NEW ENGLAND AVE,60638,1131368.72758631,1865866.04369766,23,8,56,41.78818307118733,-87.79386930084407,"{'latitude': '41.78818307118733', 'longitude': '-87.79386930084407', 'needs_recoding': False}"
2012-01-09T00:00:00,Completed - Dup,2012-01-10T00:00:00,12-00033183,Tree Debris,Vacant Lot,,,8234 S MANISTEE AVE,60617,1195931.0877918,1850903.0001855,7,4,46,41.74576793471371,-87.55764056347124,"{'latitude': '41.74576793471371', 'longitude': '-87.55764056347124', 'needs_recoding': False}"
2012-01-09T00:00:00,Completed,2012-01-09T00:00:00,12-00033644,Tree Debris,Parkway,Dispatch Clam,*Complete the Service Request,2221 S DRAKE AVE,60623,1153049.76138095,1888949.91790888,22,10,30,41.85112751004695,-87.713761826654,"{'latitude': '41.85112751004695', 'longitude': '-87.713761826654', 'needs_recoding': False}"
2012-01-09T00:00:00,Completed,2012-01-09T00:00:00,12-00034219,Tree Debris,,Dispatch Clam,*Complete the Service Request,4635 S LAWLER AVE,60638,1143471.82461392,1873429.23792674,23,8,56,41.808720738594076,-87.74930264102201,"{'latitude': '41.808720738594076', 'longitude': '-87.74930264102201', 'needs_recoding': False}"
2012-01-09T00:00:00,Completed,2012-01-09T00:00:00,12-00038432,Tree Debris,,Dispatch Clam,*Complete the Service Request,3719 S GILES AVE,60653,1178872.42002237,1880392.54560356,3,2,35,41.82709510313871,-87.61924873040668,"{'latitude': '41.82709510313871', 'longitude': '-87.61924873040668', 'needs_recoding': False}"
2012-01-09T00:00:00,Completed,2012-01-10T00:00:00,12-00033179,Tree Debris,Alley,Dispatch Clam,*Complete the Service Request,8234 S MANISTEE AVE,60617,1195931.0877918,1850903.0001855,7,4,46,41.74576793471371,-87.55764056347124,"{'latitude': '41.74576793471371', 'longitude': '-87.55764056347124', 'needs_recoding': False}"
2012-01-09T00:00:00,Completed,2012-01-10T00:00:00,12-00033181,Tree Debris,Vacant Lot,Dispatch Clam,*Complete the Service Request,8422 S MANISTEE AVE,60617,1195957.66470628,1849658.98277604,7,4,46,41.74235359520476,-87.55758427553687,"{'latitude': '41.74235359520476', 'longitude': '-87.55758427553687', 'needs_recoding': False}"
2012-01-09T00:00:00,Completed,2012-01-10T00:00:00,12-00033237,Tree Debris,Parkway,Dispatch Clam,*Complete the Service Request,6646 S MINERVA AVE,60637,1185025.6256754,1861168.57807831,5,3,42,41.774200495157615,-87.59727787056335,"{'latitude': '41.774200495157615', 'longitude': '-87.59727787056335', 'needs_recoding': False}"
2012-01-09T00:00:00,Completed,2012-01-10T00:00:00,12-00033678,Tree Debris,Parkway,Dispatch Clam,*Complete the Service Request,5821 N LACEY AVE,60646,1141974.46977958,1938604.36818769,45,16,12,41.98759668613828,-87.75317819073807,"{'latitude': '41.98759668613828', 'longitude': '-87.75317819073807', 'needs_recoding': False}"
2012-01-09T00:00:00,Completed,2012-01-10T00:00:00,12-00035490,Tree Debris,Parkway,Dispatch Clam,*Complete the Service Request,5039 W HENDERSON ST,60641,1142180.35978832,1921802.97518404,38,16,15,41.941488421057144,-87.75283957578252,"{'latitude': '41.941488421057144', 'longitude': '-87.75283957578252', 'needs_recoding': False}"
2012-01-09T00:00:00,Completed,2012-01-10T00:00:00,12-00035767,Tree Debris,,Dispatch Clam,*Complete the Service Request,13439 S BALTIMORE AVE,60633,1199106.01342249,1816445.6902845,10,4,55,41.65113472097087,-87.54715976091519,"{'latitude': '41.65113472097087', 'longitude': '-87.54715976091519', 'needs_recoding': False}"
2012-01-09T00:00:00,Completed,2012-01-10T00:00:00,12-00036663,Tree Debris,Parkway,Dispatch Clam,*Complete the Service Request,5432 S SAWYER AVE,60632,1155637.68546907,1868417.03259104,14,8,63,41.79473102053886,-87.70481480258309,"{'latitude': '41.79473102053886', 'longitude': '-87.70481480258309', 'needs_recoding': False}"
2012-01-09T00:00:00,Completed,2012-01-10T00:00:00,12-00037292,Tree Debris,Parkway,Dispatch Clam,*Complete the Service Request,5537 S SPAULDING AVE,60629,1155323.55642797,1867711.1255037,14,8,63,41.7928002075834,-87.70598561026915,"{'latitude': '41.7928002075834', 'longitude': '-87.70598561026915', 'needs_recoding': False}"
2012-01-09T00:00:00,Completed,2012-01-10T00:00:00,12-00038400,Tree Debris,Alley,Dispatch Clam,*Complete the Service Request,1415 W FARRAGUT AVE,60640,1165888.58287932,1934972.50010444,48,20,77,41.97715251599612,-87.66532490763052,"{'latitude': '41.97715251599612', 'longitude': '-87.66532490763052', 'needs_recoding': False}"
2012-01-09T00:00:00,Completed,2012-01-10T00:00:00,12-00038743,Tree Debris,,Dispatch Clam,*Complete the Service Request,5927 S THROOP ST,60636,1168672.40556575,1865463.5263116,16,7,67,41.78635479429523,-87.6571017356834,"{'latitude': '41.78635479429523', 'longitude': '-87.6571017356834', 'needs_recoding': False}"
2012-01-09T00:00:00,Completed,2012-01-10T00:00:00,12-00038897,Tree Debris,Vacant Lot,Dispatch Clam,*Complete the Service Request,5645 S ASHLAND AVE,60636,1166635.97539103,1867278.83740949,16,7,67,41.791379938461034,-87.664516554195,"{'latitude': '41.791379938461034', 'longitude': '-87.664516554195', 'needs_recoding': False}"
2012-01-09T00:00:00,Completed,2012-01-10T00:00:00,12-00038914,Tree Debris,Vacant Lot,Dispatch Clam,*Complete the Service Request,5706 S JUSTINE ST,60636,1166983.91007395,1866833.50998098,16,7,67,41.79015047151967,-87.66325347484313,"{'latitude': '41.79015047151967', 'longitude': '-87.66325347484313', 'needs_recoding': False}"
2012-01-09T00:00:00,Completed,2012-01-10T00:00:00,12-00039349,Tree Debris,Alley,Dispatch Clam,*Complete the Service Request,2748 W GREENLEAF AVE,60645,1156773.59611133,1946650.81288482,50,24,2,42.009388461819604,-87.69852650353965,"{'latitude': '42.009388461819604', 'longitude': '-87.69852650353965', 'needs_recoding': False}"
2012-01-09T00:00:00,Completed,2012-01-12T00:00:00,12-00037308,Tree Debris,Alley,Dispatch Clam,*Complete the Service Request,4036 N AVERS AVE,60618,1150003.58221569,1926550.64402953,39,17,16,41.95436741788904,-87.72396176751599,"{'latitude': '41.95436741788904', 'longitude': '-87.72396176751599', 'needs_recoding': False}"
2012-01-09T00:00:00,Completed,2012-01-12T00:00:00,12-00039072,Tree Debris,Vacant Lot,Dispatch Clam,*Complete the Service Request,4753 S LAFLIN ST,60609,1167137.09097973,1873215.48661838,20,9,61,41.80766008029859,-87.66250918054524,"{'latitude': '41.80766008029859', 'longitude': '-87.66250918054524', 'needs_recoding': False}"
2012-01-09T00:00:00,Completed,2012-01-17T00:00:00,12-00038919,Tree Debris,Parkway,Dispatch Clam,*Complete the Service Request,4825 S UNION AVE,60609,1172447.69073393,1872780.90433139,11,9,61,41.806352144918606,-87.64304421208942,"{'latitude': '41.806352144918606', 'longitude': '-87.64304421208942', 'needs_recoding': False}"
